,Unnamed: 0,idMonitoringOrdersAlarm,createdOn_x,idWorkOrder,latitude,longitude,IdCondition,Status,EventName,idCompany,idStatus,createdOn_y,updatedOn,idDriver,idVehicle,idTypeTrip,idTypeOperation,transporter,currentLocation,totalArrivalTime,totalDistance,arrivalDistance,arrivalTime,updateTravelOn,tripNumber,businessName,typeCompanie,idCity,idCompanyParent,city_name,city_lon,city_lat,codeCity_mod,status_name,type_trip_name,operation_type_description,transporter_name,month,weekMonth,weekDay,grouped_hours,LabelAlarm
1651695,1651695,61478205,2020-08-26 17:13:17.920,288172,2.395674,-75.54001,0,0,Aproximación al destino por distancia,43826,22.0,2020-08-27 11:50:15.413,2020-08-28 07:28:32.19,67596.0,107145.0,2.0,1481,50386.0,"Carrera 7 3-99, 416048 Guadalupe, Colombia",22272.0,214343.0,214343.0,371.0,2020-08-28 07:25:07.0,613505690,OPPERAR COLOMBIA S.A.S.,ET,1641,1.0,MOSQUERA,-74.22826847270001,4.71430462524,25473,Finalizado,Urbano,URBANO_SEC,IMBOCAR S.A.S,8,5,2,2.0,0
1767499,1767499,68098497,2020-10-03 07:24:24.000,313337,3.5340910000000005,-73.59603,0,0,Vehículo inició marcha,43826,22.0,2020-10-02 07:00:24.833,2020-10-05 14:28:48.72,69849.0,112027.0,3.0,1485,50386.0,"Carrera 4 10-49, 501001 Barranca de Upía, Colombia",1373688.0,13662446.0,13662446.0,22878.0,2020-10-05 14:17:02.0,613529112,OPPERAR COLOMBIA S.A.S.,ET,1641,1.0,MOSQUERA,-74.22826847270001,4.71430462524,25473,Finalizado,Regional,VIAJERA_SE,IMBOCAR S.A.S,10,1,5,1.0,0
1655956,1655956,61236920,2020-08-25 07:42:32.000,285183,4.435435,-74.38515,0,0,Vehículo inició marcha,43826,22.0,2020-08-22 07:25:28.953,2020-08-28 07:23:55.183,64083.0,110471.0,2.0,1481,50386.0,"Carrera 10 7-128, 250030 Madrid, Colombia",21303.0,163597.0,163597.0,353.0,2020-08-28 07:23:46.0,613505434,OPPERAR COLOMBIA S.A.S.,ET,1641,1.0,MOSQUERA,-74.22826847270001,4.71430462524,25473,Finalizado,Urbano,URBANO_SEC,IMBOCAR S.A.S,8,5,1,1.0,0
1039008,1039008,59187734,2020-08-13 10:34:02.143,276204,8.10361,-73.56613,0,0,Fuera de ruta,27955,22.0,2020-08-05 10:44:30.230,2020-08-13 17:49:41.92,54708.0,77820.0,9.0,1331,37219.0,"45, 155209 Puerto Boyacá, Colombia",49712.0,501541.0,501541.0,828.0,2020-08-13 16:51:04.0,8122798648,DIACO S.A.,GC,1274,1.0,"BOGOTÁ, D.C.",-74.1139187163,4.62457504964,11001,Finalizado,Otros,PRODUCTO TERMINADO,TRANSPORTADORA DE CARGA ANTIOQUIA S.A.S.,8,3,3,1.0,0
1526754,1526754,68866458,2020-10-07 13:19:14.730,312417,1.130172,-77.36498,0,0,Fuera de ruta,43826,22.0,2020-10-06 18:05:13.470,2020-10-08 15:58:56.667,69400.0,111761.0,3.0,1485,50386.0,"528503 San Andres de Tumaco, Colombia",78007.0,607027.0,245790.0,519.0,2020-10-08 15:59:49.0,613530906,OPPERAR COLOMBIA S.A.S.,ET,1641,1.0,MOSQUERA,-74.22826847270001,4.71430462524,25473,Finalizado,Regional,VIAJERA_SE,IMBOCAR S.A.S,10,2,2,2.0,0
951973,951973,59158539,2020-08-13 08:52:11.550,279365,10.06984,-75.07621,0,0,Fuera de ruta,11132,22.0,2020-08-11 11:53:39.670,2020-08-13 14:35:43.25,41890.0,46165.0,4.0,1187,22970.0,"130009 Cartagena, Colombia",88749.0,950071.0,950071.0,1478.0,2020-08-13 13:25:15.0,3017807,C.I. MILPA S.A.,GC,1274,1.0,"BOGOTÁ, D.C.",-74.1139187163,4.62457504964,11001,Finalizado,Nacional,EXPORTACION,TRANSPORTADORA SAN FERNANDO S.A.S,8,3,3,1.0,0
1651717,1651717,61472764,2020-08-26 16:25:00.000,288172,2.669305,-75.3345,0,0,Vehículo inició marcha,43826,22.0,2020-08-27 11:50:15.413,2020-08-28 07:28:32.19,67596.0,107145.0,2.0,1481,50386.0,"Carrera 7 3-99, 416048 Guadalupe, Colombia",22272.0,214343.0,214343.0,371.0,2020-08-28 07:25:07.0,613505690,OPPERAR COLOMBIA S.A.S.,ET,1641,1.0,MOSQUERA,-74.22826847270001,4.71430462524,25473,Finalizado,Urbano,URBANO_SEC,IMBOCAR S.A.S,8,5,2,2.0,0
948783,948783,59176123,2020-08-13 09:50:09.370,279452,8.89039,-75.74320999999998,0,0,Fuera de ruta,46372,22.0,2020-08-11 14:35:35.600,2020-08-14 14:51:42.563,67679.0,88486.0,4.0,1490,47189.0,"62, 057430 Dabeiba, Colombia",82507.0,908193.0,345230.0,480.0,2020-08-14 13:23:34.0,010000118938,Transolicar,ET,1971,24854.0,BUCARAMANGA,-73.13232523100001,7.122787285339999,68001,Finalizado,Nacional,GRANO,TRANSPORTE DE CARGA SOLIDA Y LIQUIDA,8,3,3,1.0,0
1563897,1563897,66818549,2020-09-25 13:16:27.497,307410,2.015009,-75.7808,0,0,Aproximación al destino por distancia,43826,22.0,2020-10-05 06:35:17.557,2020-10-05 08:18:09.86,66316.0,107145.0,3.0,1485,50386.0,"Carrera 1 70C, 410001 Neiva, Colombia",80448.0,758977.0,443850.0,841.0,2020-10-05 08:00:07.0,613527627,OPPERAR COLOMBIA S.A.S.,ET,1641,1.0,MOSQUERA,-74.22826847270001,4.71430462524,25473,Finalizado,Regional,VIAJERA_SE,IMBOCAR S.A.S,10,4,4,2.0,0
944401,944401,59184775,2020-08-13 10:22:12.173,279593,4.51379,-75.57813,0,0,Fuera de ruta,43685,22.0,2020-08-11 18:16:13.713,2020-08-15 07:37:41.24,62453.0,83542.0,4.0,1446,48619.0,"40, 733517 Flandes, Colombia",60801.0,558040.0,365740.0,688.0,2020-08-15 07:34:35.0,4684,TRANSPORTES ALEX,GC,1274,1.0,"BOGOTÁ, D.C.",-74.1139187163,4.62457504964,11001,Finalizado,Nacional,Carga Normal,TRANSPORTES ALEX LTDA,8,3,3,1.0,0
935446,935446,59187637,2020-08-13 10:33:48.310,280015,10.72443,-74.12897,0,0,Fuera de ruta,46372,22.0,2020-08-12 10:36:39.367,2020-08-17 17:45:59.723,66795.0,109102.0,4.0,1490,47189.0,"110921 Bogotá, D.C., Colombia",80715.0,997968.0,3122.0,9.0,2020-08-17 07:58:25.0,010000118993,Transolicar,ET,1971,24854.0,BUCARAMANGA,-73.13232523100001,7.122787285339999,68001,Finalizado,Nacional,GRANO,TRANSPORTE DE CARGA SOLIDA Y LIQUIDA,8,3,3,1.0,0
952523,952523,59191316,2020-08-13 10:55:28.877,279359,8.13888,-73.58422,0,0,Fuera de ruta,46372,22.0,2020-08-11 11:31:19.827,2020-08-14 16:48:08.857,64965.0,88291.0,4.0,1489,47189.0,"Carrera 30 6, 080004 Barranquilla, Colombia",78899.0,908242.0,908242.0,1314.0,2020-08-14 14:02:11.0,010000118919,Transolicar,ET,1971,24854.0,BUCARAMANGA,-73.13232523100001,7.122787285339999,68001,Finalizado,Nacional,CARBON,TRANSPORTE DE CARGA SOLIDA Y LIQUIDA,8,3,3,1.0,0
951646,951646,59190984,2020-08-13 10:53:52.187,279370,5.48418,-73.40441,0,0,Fuera de ruta,11132,22.0,2020-08-11 11:59:28.760,2020-08-18 07:26:45.81,37465.0,45575.0,4.0,1187,22968.0,"130009 Cartagena, Colombia",89111.0,952625.0,952625.0,1484.0,2020-08-15 12:24:29.0,3017810,C.I. MILPA S.A.,GC,1274,1.0,"BOGOTÁ, D.C.",-74.1139187163,4.62457504964,11001,Finalizado,Nacional,EXPORTACION,COOTRANSVALLE O.C,8,3,3,1.0,0
971186,971186,59174977,2020-08-13 09:47:09.723,278603,8.5741,-73.63728,0,0,Fuera de ruta,11132,22.0,2020-08-10 09:45:34.623,2020-08-14 07:19:31.983,39333.0,45473.0,4.0,1187,23037.0,"130013 Cartagena, Colombia",86979.0,955583.0,955583.0,1449.0,2020-08-14 07:20:17.0,2034464,C.I. MILPA S.A.,GC,1274,1.0,"BOGOTÁ, D.C.",-74.1139187163,4.62457504964,11001,Finalizado,Nacional,EXPORTACION,TRANSPORTES Y SERVICIOS TRANSER S.A.,8,3,3,1.0,0
1819227,1819227,68133903,2020-10-03 12:34:26.000,304036,11.1827,-72.64303000000002,0,0,Vehículo inició marcha,43826,22.0,2020-10-02 11:15:21.707,2020-10-04 07:50:12.587,68476.0,112124.0,3.0,1485,50386.0,"200003 Valledupar, Colombia",33991.0,353363.0,353363.0,566.0,2020-10-04 07:42:40.0,613523266,OPPERAR COLOMBIA S.A.S.,ET,1641,1.0,MOSQUERA,-74.22826847270001,4.71430462524,25473,Finalizado,Regional,VIAJERA_SE,IMBOCAR S.A.S,10,1,5,2.0,0
1532213,1532213,68871346,2020-10-07 13:47:42.360,312036,4.338342,-73.35851,0,0,Fuera de ruta,43826,22.0,2020-10-07 01:35:38.813,2020-10-08 15:54:46.2,69849.0,112027.0,3.0,1485,50386.0,"Carrera 18B 19A O, 950001 San José del Guaviare, Colombia",83347.0,816054.0,815140.0,1367.0,2020-10-08 15:04:08.0,613530828,OPPERAR COLOMBIA S.A.S.,ET,1641,1.0,MOSQUERA,-74.22826847270001,4.71430462524,25473,Finalizado,Regional,VIAJERA_SE,IMBOCAR S.A.S,10,2,2,2.0,0
960911,960911,59174060,2020-08-13 09:44:30.157,278854,11.03576,-74.81617,0,0,Fuera de ruta,46372,22.0,2020-08-10 17:00:32.390,2020-08-14 18:45:28.463,59529.0,97519.0,4.0,1489,47189.0,"45, 478028 Zona Bananera, Colombia",126509.0,1787206.0,916378.0,1058.0,2020-08-14 18:31:52.0,010000118892,Transolicar,ET,1971,24854.0,BUCARAMANGA,-73.13232523100001,7.122787285339999,68001,Finalizado,Nacional,CARBON,TRANSPORTE DE CARGA SOLIDA Y LIQUIDA,8,3,3,1.0,0
1526498,1526498,69076132,2020-10-08 12:32:18.520,312417,1.454624,-78.64,0,0,Fuera de ruta,43826,22.0,2020-10-06 18:05:13.470,2020-10-08 15:58:56.667,69400.0,111761.0,3.0,1485,50386.0,"528503 San Andres de Tumaco, Colombia",78007.0,607027.0,245790.0,519.0,2020-10-08 15:59:49.0,613530906,OPPERAR COLOMBIA S.A.S.,ET,1641,1.0,MOSQUERA,-74.22826847270001,4.71430462524,25473,Finalizado,Regional,VIAJERA_SE,IMBOCAR S.A.S,10,2,3,2.0,0
971198,971198,59175219,2020-08-13 09:48:24.220,278603,8.59567,-73.63595,0,0,Fuera de ruta,11132,22.0,2020-08-10 09:45:34.623,2020-08-14 07:19:31.983,39333.0,45473.0,4.0,1187,23037.0,"130013 Cartagena, Colombia",86979.0,955583.0,955583.0,1449.0,2020-08-14 07:20:17.0,2034464,C.I. MILPA S.A.,GC,1274,1.0,"BOGOTÁ, D.C.",-74.1139187163,4.62457504964,11001,Finalizado,Nacional,EXPORTACION,TRANSPORTES Y SERVICIOS TRANSER S.A.,8,3,3,1.0,0
1526694,1526694,69076119,2020-10-08 12:32:17.443,312417,1.454624,-78.64,0,0,Fuera de ruta,43826,22.0,2020-10-06 18:05:13.470,2020-10-08 15:58:56.667,69400.0,111761.0,3.0,1485,50386.0,"528503 San Andres de Tumaco, Colombia",78007.0,607027.0,245790.0,519.0,2020-10-08 15:59:49.0,613530906,OPPERAR COLOMBIA S.A.S.,ET,1641,1.0,MOSQUERA,-74.22826847270001,4.71430462524,25473,Finalizado,Regional,VIAJERA_SE,IMBOCAR S.A.S,10,2,3,2.0,0
1655940,1655940,61278790,2020-08-25 12:34:41.000,285183,4.5410580000000005,-74.28545,0,0,Vehículo inició marcha,43826,22.0,2020-08-22 07:25:28.953,2020-08-28 07:23:55.183,64083.0,110471.0,2.0,1481,50386.0,"Carrera 10 7-128, 250030 Madrid, Colombia",21303.0,163597.0,163597.0,353.0,2020-08-28 07:23:46.0,613505434,OPPERAR COLOMBIA S.A.S.,ET,1641,1.0,MOSQUERA,-74.22826847270001,4.71430462524,25473,Finalizado,Urbano,URBANO_SEC,IMBOCAR S.A.S,8,5,1,2.0,0
933494,933494,59189120,2020-08-13 10:38:54.460,280048,6.6821399999999995,-73.0374,0,0,Fuera de ruta,11132,22.0,2020-08-12 11:12:53.860,2020-08-18 07:27:31.997,61299.0,45420.0,4.0,1187,22968.0,"50, 253057 Facatativá, Colombia",89275.0,954049.0,5891.0,13.0,2020-08-15 14:29:13.0,3017821,C.I. MILPA S.A.,GC,1274,1.0,"BOGOTÁ, D.C.",-74.1139187163,4.62457504964,11001,Finalizado,Nacional,EXPORTACION,COOTRANSVALLE O.C,8,3,3,1.0,0
952979,952979,59175716,2020-08-13 09:49:11.973,279328,7.86125,-72.47925,0,0,Fuera de ruta,46372,22.0,2020-08-11 10:56:36.800,2020-08-14 07:12:40.19,62844.0,103551.0,4.0,1490,47189.0,"55, 540018 Cúcuta, Colombia",67028.0,887539.0,8791.0,25.0,2020-08-14 06:46:59.0,010000118912,Transolicar,ET,1971,24854.0,BUCARAMANGA,-73.13232523100001,7.122787285339999,68001,Finalizado,Nacional,GRANO,TRANSPORTE DE CARGA SOLIDA Y LIQUIDA,8,3,3,1.0,0
1845587,1845587,66894653,2020-09-26 03:49:37.467,307313,2.650212,-72.76168,0,0,Aproximación al destino por distancia,43826,22.0,2020-09-24 15:23:44.577,2020-09-28 11:28:34.253,69825.0,112024.0,3.0,1485,50386.0,"65, 507057 Guamal, Colombia",375253.0,3823357.0,3823357.0,6241.0,2020-09-28 12:13:17.0,613525597,OPPERAR COLOMBIA S.A.S.,ET,1641,1.0,MOSQUERA,-74.22826847270001,4.71430462524,25473,Finalizado,Regional,VIAJERA_SE,IMBOCAR S.A.S,9,4,5,0.0,0
1891088,1891088,66269549,2020-09-22 13:44:09.553,304387,5.789292,-73.06430999999998,0,0,Aproximación al destino por distancia,43826,22.0,2020-09-22 06:25:29.907,2020-09-25 11:04:43.0,69737.0,112033.0,2.0,1481,50386.0,"152268 Tibasosa, Colombia",20513.0,114358.0,114358.0,335.0,2020-09-25 12:14:23.0,613523389,OPPERAR COLOMBIA S.A.S.,ET,1641,1.0,MOSQUERA,-74.22826847270001,4.71430462524,25473,Finalizado,Urbano,URBANO_SEC,IMBOCAR S.A.S,9,4,1,2.0,0
1845597,1845597,66893886,2020-09-26 03:40:10.707,307313,2.627668,-72.7624,0,0,Aproximación al destino por distancia,43826,22.0,2020-09-24 15:23:44.577,2020-09-28 11:28:34.253,69825.0,112024.0,3.0,1485,50386.0,"65, 507057 Guamal, Colombia",375253.0,3823357.0,3823357.0,6241.0,2020-09-28 12:13:17.0,613525597,OPPERAR COLOMBIA S.A.S.,ET,1641,1.0,MOSQUERA,-74.22826847270001,4.71430462524,25473,Finalizado,Regional,VIAJERA_SE,IMBOCAR S.A.S,9,4,5,0.0,0
1532493,1532493,68871309,2020-10-07 13:47:19.000,312036,4.33634,-73.36363,0,0,Vehículo inició marcha,43826,22.0,2020-10-07 01:35:38.813,2020-10-08 15:54:46.2,69849.0,112027.0,3.0,1485,50386.0,"Carrera 18B 19A O, 950001 San José del Guaviare, Colombia",83347.0,816054.0,815140.0,1367.0,2020-10-08 15:04:08.0,613530828,OPPERAR COLOMBIA S.A.S.,ET,1641,1.0,MOSQUERA,-74.22826847270001,4.71430462524,25473,Finalizado,Regional,VIAJERA_SE,IMBOCAR S.A.S,10,2,2,2.0,0
1532503,1532503,68875995,2020-10-07 14:25:27.000,312036,4.265384,-73.55067,0,0,Vehículo inició marcha,43826,22.0,2020-10-07 01:35:38.813,2020-10-08 15:54:46.2,69849.0,112027.0,3.0,1485,50386.0,"Carrera 18B 19A O, 950001 San José del Guaviare, Colombia",83347.0,816054.0,815140.0,1367.0,2020-10-08 15:04:08.0,613530828,OPPERAR COLOMBIA S.A.S.,ET,1641,1.0,MOSQUERA,-74.22826847270001,4.71430462524,25473,Finalizado,Regional,VIAJERA_SE,IMBOCAR S.A.S,10,2,2,2.0,0
1929247,1929247,70253120,2020-10-13 06:54:14.790,329477,4.106881,-72.86777,0,0,Aproximación al destino por distancia,43826,44.0,2020-10-11 17:55:39.827,2020-10-13 08:21:14.0,69825.0,112024.0,3.0,1485,50386.0,"40, 502007 Puerto López, Colombia",46857.0,408649.0,384237.0,715.0,2020-10-13 08:21:34.0,613536690,OPPERAR COLOMBIA S.A.S.,ET,1641,1.0,MOSQUERA,-74.22826847270001,4.71430462524,25473,Activa,Regional,VIAJERA_SE,IMBOCAR S.A.S,10,3,1,1.0,0
1927236,1927236,62636449,2020-09-03 07:35:28.330,293162,4.997117,-73.88266999999998,0,0,Aproximación al destino por distancia,43826,22.0,2020-09-02 06:28:52.167,2020-09-07 11:03:43.077,68143.0,110367.0,2.0,1481,50386.0,"250251 Zipaquirá, Colombia",22885.0,154164.0,154164.0,372.0,2020-09-07 09:57:16.0,613512592,OPPERAR COLOMBIA S.A.S.,ET,1641,1.0,MOSQUERA,-74.22826847270001,4.71430462524,25473,Finalizado,Urbano,URBANO_SEC,IMBOCAR S.A.S,9,1,3,1.0,0
1872992,1872992,66564827,2020-09-24 06:46:33.917,305754,2.662814,-75.33646,0,0,Aproximación al destino por distancia,43826,22.0,2020-09-23 13:42:09.143,2020-09-26 07:37:07.313,67596.0,107145.0,2.0,1481,50386.0,"Calle 42 6-96, 410001 Neiva, Colombia",18923.0,155587.0,38092.0,101.0,2020-09-26 07:15:04.0,613525884,OPPERAR COLOMBIA S.A.S.,ET,1641,1.0,MOSQUERA,-74.22826847270001,4.71430462524,25473,Finalizado,Urbano,URBANO_SEC,IMBOCAR S.A.S,9,4,3,1.0,0
1923431,1923431,63158500,2020-09-07 09:45:14.040,295888,5.000523,-73.99065,0,0,Aproximación al destino por distancia,43826,22.0,2020-09-10 16:30:52.147,2020-09-12 09:56:32.137,68143.0,110367.0,2.0,1481,50386.0,"250251 Zipaquirá, Colombia",50713.0,227402.0,227402.0,827.0,2020-09-12 09:43:53.0,613516381,OPPERAR COLOMBIA S.A.S.,ET,1641,1.0,MOSQUERA,-74.22826847270001,4.71430462524,25473,Finalizado,Urbano,URBANO_SEC,IMBOCAR S.A.S,9,2,0,1.0,0
1767504,1767504,68102297,2020-10-03 07:56:47.000,313337,3.792807,-73.73817,0,0,Vehículo inició marcha,43826,22.0,2020-10-02 07:00:24.833,2020-10-05 14:28:48.72,69849.0,112027.0,3.0,1485,50386.0,"Carrera 4 10-49, 501001 Barranca de Upía, Colombia",1373688.0,13662446.0,13662446.0,22878.0,2020-10-05 14:17:02.0,613529112,OPPERAR COLOMBIA S.A.S.,ET,1641,1.0,MOSQUERA,-74.22826847270001,4.71430462524,25473,Finalizado,Regional,VIAJERA_SE,IMBOCAR S.A.S,10,1,5,1.0,0
1876743,1876743,66623306,2020-09-24 12:26:28.287,305612,3.8898940000000004,-73.77152,0,0,Aproximación al destino por distancia,43826,22.0,2020-09-23 11:17:04.347,2020-09-26 07:35:07.11,69825.0,112024.0,3.0,1485,50386.0,"507037 San Martín, Colombia",70895.0,740980.0,310899.0,499.0,2020-09-26 07:29:45.0,613524213,OPPERAR COLOMBIA S.A.S.,ET,1641,1.0,MOSQUERA,-74.22826847270001,4.71430462524,25473,Finalizado,Regional,VIAJERA_SE,IMBOCAR S.A.S,9,4,3,2.0,0
1532523,1532523,68872567,2020-10-07 13:59:27.000,312036,4.2611620000000014,-73.45608,0,0,Vehículo inició marcha,43826,22.0,2020-10-07 01:35:38.813,2020-10-08 15:54:46.2,69849.0,112027.0,3.0,1485,50386.0,"Carrera 18B 19A O, 950001 San José del Guaviare, Colombia",83347.0,816054.0,815140.0,1367.0,2020-10-08 15:04:08.0,613530828,OPPERAR COLOMBIA S.A.S.,ET,1641,1.0,MOSQUERA,-74.22826847270001,4.71430462524,25473,Finalizado,Regional,VIAJERA_SE,IMBOCAR S.A.S,10,2,2,2.0,0
934699,934699,59187623,2020-08-13 10:33:44.260,280020,9.94459,-73.86764000000002,0,0,Fuera de ruta,46372,22.0,2020-08-12 10:41:04.063,2020-08-16 10:18:39.853,66286.0,107123.0,4.0,1490,47189.0,"250027 Funza, Colombia",80308.0,992830.0,6831.0,25.0,2020-08-16 07:29:24.0,010000118994,Transolicar,ET,1971,24854.0,BUCARAMANGA,-73.13232523100001,7.122787285339999,68001,Finalizado,Nacional,GRANO,TRANSPORTE DE CARGA SOLIDA Y LIQUIDA,8,3,3,1.0,0
947723,947723,59188902,2020-08-13 10:37:37.360,279473,11.21778,-73.38551,0,0,Fuera de ruta,46372,22.0,2020-08-11 15:09:45.280,2020-08-15 07:28:36.78,61632.0,100202.0,4.0,1489,47189.0,"45, 205078 San Alberto, Colombia",59757.0,793442.0,556868.0,720.0,2020-08-15 07:27:12.0,010000118944,Transolicar,ET,1971,24854.0,BUCARAMANGA,-73.13232523100001,7.122787285339999,68001,Finalizado,Nacional,CARBON,TRANSPORTE DE CARGA SOLIDA Y LIQUIDA,8,3,3,1.0,0
1935187,1935187,70316625,2020-10-13 10:40:22.000,329055,3.331601,-73.41148000000003,0,0,Aproximación al destino por distancia,43826,44.0,2020-10-11 11:55:25.553,2020-10-13 08:05:25.0,69114.0,111481.0,3.0,1485,50386.0,"65-46, 503007 Puerto Lleras, Colombia",57728.0,551004.0,551004.0,933.0,2020-10-13 08:16:43.0,613534299,OPPERAR COLOMBIA S.A.S.,ET,1641,1.0,MOSQUERA,-74.22826847270001,4.71430462524,25473,Activa,Regional,VIAJERA_SE,IMBOCAR S.A.S,10,3,1,1.0,0
932549,932549,59177680,2020-08-13 09:56:12.480,280074,10.98573,-74.30059,0,0,Fuera de ruta,46372,22.0,2020-08-12 12:13:48.467,2020-08-15 09:56:00.013,60164.0,98339.0,4.0,1490,47189.0,"680001 Bucaramanga, Colombia",51252.0,587662.0,587662.0,853.0,2020-08-15 09:33:27.0,010000119003,Transolicar,ET,1971,24854.0,BUCARAMANGA,-73.13232523100001,7.122787285339999,68001,Finalizado,Nacional,GRANO,TRANSPORTE DE CARGA SOLIDA Y LIQUIDA,8,3,3,1.0,0
924692,924692,59166862,2020-08-13 09:19:53.420,280376,4.62741,-74.19205,0,0,Fuera de ruta,47618,22.0,2020-08-12 20:43:57.810,2020-08-15 22:33:41.143,65437.0,99226.0,3.0,1410,58893.0,"Carrera 33 55A S-20, 110611 Bogotá, D.C., Colombia",6759.0,33882.0,16636.0,55.0,2020-08-15 18:04:08.0,CEB0361259,COLOMBIANA DE COMERCIO S.A.,ET,1274,24854.0,"BOGOTÁ, D.C.",-74.1139187163,4.62457504964,11001,Finalizado,Regional,PROVINCIA,Jhon Fredy Castro Gomez,8,3,3,1.0,0
1867819,1867819,66893834,2020-09-26 03:39:18.320,305941,2.627668,-72.7624,0,0,Aproximación al destino por distancia,43826,22.0,2020-09-23 15:30:16.377,2020-09-26 07:40:34.487,69825.0,112024.0,3.0,1485,50386.0,"507037 San Martín, Colombia",165194.0,1558537.0,1558537.0,2744.0,2020-09-26 07:39:11.0,613521938,OPPERAR COLOMBIA S.A.S.,ET,1641,1.0,MOSQUERA,-74.22826847270001,4.71430462524,25473,Finalizado,Regional,VIAJERA_SE,IMBOCAR S.A.S,9,4,5,0.0,0
1439518,1439518,69024851,2020-10-08 08:20:58.313,326543,4.049921,-73.73944,0,0,Aproximación al destino por distancia,43826,22.0,2020-10-07 06:40:20.613,2020-10-13 06:50:44.01,69131.0,110567.0,3.0,1485,50386.0,"Carrera 18 14-1, 507001 Acacías, Colombia",17879.0,136574.0,130767.0,256.0,2020-10-13 06:37:50.0,613531761,OPPERAR COLOMBIA S.A.S.,ET,1641,1.0,MOSQUERA,-74.22826847270001,4.71430462524,25473,Finalizado,Regional,VIAJERA_SE,IMBOCAR S.A.S,10,2,3,1.0,0
923181,923181,59159627,2020-08-13 08:55:47.123,280642,4.70295,-74.2257,0,0,Entrada zona alto riesgo,47618,22.0,2020-08-13 08:03:28.860,2020-08-13 22:42:32.633,66958.0,99442.0,6.0,1412,71503.0,"Carrera 122ABIS 70-7, 111031 Bogotá, D.C., Colombia",162639.0,1331133.0,1314045.0,2645.0,2020-08-13 19:51:06.0,CEB0361470,COLOMBIANA DE COMERCIO S.A.,ET,1274,24854.0,"BOGOTÁ, D.C.",-74.1139187163,4.62457504964,11001,Finalizado,Inter cedi,RUTAS ALKOSTO,RIGOBERTO NIETO PIRAJAN,8,3,3,1.0,0
952972,952972,59175811,2020-08-13 09:49:17.517,279328,7.86125,-72.47922,0,0,Fuera de ruta,46372,22.0,2020-08-11 10:56:36.800,2020-08-14 07:12:40.19,62844.0,103551.0,4.0,1490,47189.0,"55, 540018 Cúcuta, Colombia",67028.0,887539.0,8791.0,25.0,2020-08-14 06:46:59.0,010000118912,Transolicar,ET,1971,24854.0,BUCARAMANGA,-73.13232523100001,7.122787285339999,68001,Finalizado,Nacional,GRANO,TRANSPORTE DE CARGA SOLIDA Y LIQUIDA,8,3,3,1.0,0
1532498,1532498,68873815,2020-10-07 14:10:43.000,312036,4.271572,-73.50346,0,0,Vehículo inició marcha,43826,22.0,2020-10-07 01:35:38.813,2020-10-08 15:54:46.2,69849.0,112027.0,3.0,1485,50386.0,"Carrera 18B 19A O, 950001 San José del Guaviare, Colombia",83347.0,816054.0,815140.0,1367.0,2020-10-08 15:04:08.0,613530828,OPPERAR COLOMBIA S.A.S.,ET,1641,1.0,MOSQUERA,-74.22826847270001,4.71430462524,25473,Finalizado,Regional,VIAJERA_SE,IMBOCAR S.A.S,10,2,2,2.0,0
1526723,1526723,69076139,2020-10-08 12:32:19.517,312417,1.451654,-78.63768,0,0,Fuera de ruta,43826,22.0,2020-10-06 18:05:13.470,2020-10-08 15:58:56.667,69400.0,111761.0,3.0,1485,50386.0,"528503 San Andres de Tumaco, Colombia",78007.0,607027.0,245790.0,519.0,2020-10-08 15:59:49.0,613530906,OPPERAR COLOMBIA S.A.S.,ET,1641,1.0,MOSQUERA,-74.22826847270001,4.71430462524,25473,Finalizado,Regional,VIAJERA_SE,IMBOCAR S.A.S,10,2,3,2.0,0
1872560,1872560,66818845,2020-09-25 13:21:19.907,305778,2.061799,-75.78987,0,0,Aproximación al destino por distancia,43826,22.0,2020-09-23 13:51:03.570,2020-09-26 07:37:30.207,66316.0,107145.0,3.0,1485,50386.0,"Carrera 6BIS 40-24, 410001 Neiva, Colombia",75970.0,681119.0,680796.0,1249.0,2020-09-26 07:29:23.0,613520257,OPPERAR COLOMBIA S.A.S.,ET,1641,1.0,MOSQUERA,-74.22826847270001,4.71430462524,25473,Finalizado,Regional,VIAJERA_SE,IMBOCAR S.A.S,9,4,4,2.0,0
952974,952974,59138514,2020-08-13 07:39:47.367,279328,7.86112,-72.47944,0,0,Fuera de ruta,46372,22.0,2020-08-11 10:56:36.800,2020-08-14 07:12:40.19,62844.0,103551.0,4.0,1490,47189.0,"55, 540018 Cúcuta, Colombia",67028.0,887539.0,8791.0,25.0,2020-08-14 06:46:59.0,010000118912,Transolicar,ET,1971,24854.0,BUCARAMANGA,-73.13232523100001,7.122787285339999,68001,Finalizado,Nacional,GRANO,TRANSPORTE DE CARGA SOLIDA Y LIQUIDA,8,3,3,1.0,0
1526964,1526964,69076129,2020-10-08 12:32:18.187,312417,1.450377,-78.63664,0,0,Fuera de ruta,43826,22.0,2020-10-06 18:05:13.470,2020-10-08 15:58:56.667,69400.0,111761.0,3.0,1485,50386.0,"528503 San Andres de Tumaco, Colombia",78007.0,607027.0,245790.0,519.0,2020-10-08 15:59:49.0,613530906,OPPERAR COLOMBIA S.A.S.,ET,1641,1.0,MOSQUERA,-74.22826847270001,4.71430462524,25473,Finalizado,Regional,VIAJERA_SE,IMBOCAR S.A.S,10,2,3,2.0,0
954097,954097,59175802,2020-08-13 09:49:17.013,279295,11.24688,-73.3796,0,0,Fuera de ruta,46372,22.0,2020-08-11 09:24:14.973,2020-08-14 15:02:26.71,59410.0,97393.0,4.0,1489,47189.0,"080004 Barranquilla, Colombia",88406.0,976684.0,216737.0,302.0,2020-08-14 14:06:38.0,010000118906,Transolicar,ET,1971,24854.0,BUCARAMANGA,-73.13232523100001,7.122787285339999,68001,Finalizado,Nacional,CARBON,TRANSPORTE DE CARGA SOLIDA Y LIQUIDA,8,3,3,1.0,0
929744,929744,59174673,2020-08-13 09:46:09.877,280136,8.13959,-72.73175,0,0,Fuera de ruta,46372,22.0,2020-08-12 14:18:03.563,2020-08-14 16:53:34.347,60187.0,98364.0,4.0,1489,47189.0,"Carrera 30 6, 080004 Barranquilla, Colombia",66335.0,892036.0,892036.0,1105.0,2020-08-14 12:27:09.0,010000119021,Transolicar,ET,1971,24854.0,BUCARAMANGA,-73.13232523100001,7.122787285339999,68001,Finalizado,Nacional,CARBON,TRANSPORTE DE CARGA SOLIDA Y LIQUIDA,8,3,3,1.0,0
937374,937374,59167121,2020-08-13 09:20:50.997,279987,9.07019,-75.82361,0,0,Fuera de ruta,46372,22.0,2020-08-12 09:54:00.083,2020-08-16 14:09:07.363,67690.0,109926.0,4.0,1492,47189.0,"176020 Chinchiná, Colombia",90454.0,880802.0,880802.0,1506.0,2020-08-16 14:01:17.0,010000118981,Transolicar,ET,1971,24854.0,BUCARAMANGA,-73.13232523100001,7.122787285339999,68001,Finalizado,Nacional,ALIMENTOS,TRANSPORTE DE CARGA SOLIDA Y LIQUIDA,8,3,3,1.0,0
1666720,1666720,59171543,2020-08-13 09:35:37.000,279126,4.66392,-74.07225,0,0,Excesos de velocidad,47618,22.0,2020-08-11 06:21:52.273,2020-08-15 22:09:54.197,66970.0,99180.0,6.0,1412,71718.0,"Calle 17C 135-54, 110921 Bogotá, D.C., Colombia",175460.0,1442446.0,1442446.0,2912.0,2020-08-15 14:19:11.0,CEB0360821,COLOMBIANA DE COMERCIO S.A.,ET,1274,24854.0,"BOGOTÁ, D.C.",-74.1139187163,4.62457504964,11001,Finalizado,Inter cedi,RUTAS ALKOSTO,CARLOS ARNULFO OVIEDO BUENO,8,3,3,1.0,1
1944198,1944198,59162484,2020-08-13 09:05:09.000,280645,4.698919999999998,-74.1858,0,0,Excesos de velocidad,47618,22.0,2020-08-13 08:08:40.463,2020-08-13 22:49:30.91,66892.0,99233.0,6.0,1412,69064.0,"111841 Bogotá, D.C., Colombia",18128.0,108154.0,47817.0,140.0,2020-08-13 21:41:33.0,CEB0361471,COLOMBIANA DE COMERCIO S.A.,ET,1274,24854.0,"BOGOTÁ, D.C.",-74.1139187163,4.62457504964,11001,Finalizado,Inter cedi,RUTAS ALKOSTO,Leonardo Arcila Perez,8,3,3,1.0,1
937554,937554,59158912,2020-08-13 08:53:18.000,279987,8.95173,-75.84257,0,0,Excesos de velocidad,46372,22.0,2020-08-12 09:54:00.083,2020-08-16 14:09:07.363,67690.0,109926.0,4.0,1492,47189.0,"176020 Chinchiná, Colombia",90454.0,880802.0,880802.0,1506.0,2020-08-16 14:01:17.0,010000118981,Transolicar,ET,1971,24854.0,BUCARAMANGA,-73.13232523100001,7.122787285339999,68001,Finalizado,Nacional,ALIMENTOS,TRANSPORTE DE CARGA SOLIDA Y LIQUIDA,8,3,3,1.0,1
946899,946899,59170661,2020-08-13 09:31:33.000,279526,10.96441,-74.75244,0,0,Excesos de velocidad,27955,22.0,2020-08-11 17:03:35.277,2020-08-13 18:04:21.047,67590.0,83877.0,9.0,1331,37287.0,"477008 Sitionuevo, Colombia",25464.0,303282.0,291310.0,397.0,2020-08-13 17:20:42.0,8123002077,DIACO S.A.,GC,1274,1.0,"BOGOTÁ, D.C.",-74.1139187163,4.62457504964,11001,Finalizado,Otros,PRODUCTO TERMINADO,ENTREGACARGAS SAS,8,3,3,1.0,1
1731904,1731904,69317694,2020-10-09 11:14:42.000,327880,4.950253,-73.94471,0,0,Excesos de velocidad,43826,22.0,2020-10-09 07:46:54.907,2020-10-13 07:01:02.817,64409.0,105199.0,2.0,1481,50386.0,"Calle 8, 250251 Zipaquirá, Colombia",7464.0,59937.0,59937.0,122.0,2020-10-13 06:40:43.0,613535602,OPPERAR COLOMBIA S.A.S.,ET,1641,1.0,MOSQUERA,-74.22826847270001,4.71430462524,25473,Finalizado,Urbano,URBANO_SEC,IMBOCAR S.A.S,10,2,4,1.0,1
960998,960998,59163318,2020-08-13 09:08:40.000,278854,11.03509,-74.81795,0,0,Excesos de velocidad,46372,22.0,2020-08-10 17:00:32.390,2020-08-14 18:45:28.463,59529.0,97519.0,4.0,1489,47189.0,"45, 478028 Zona Bananera, Colombia",126509.0,1787206.0,916378.0,1058.0,2020-08-14 18:31:52.0,010000118892,Transolicar,ET,1971,24854.0,BUCARAMANGA,-73.13232523100001,7.122787285339999,68001,Finalizado,Nacional,CARBON,TRANSPORTE DE CARGA SOLIDA Y LIQUIDA,8,3,3,1.0,1
948063,948063,59167572,2020-08-13 09:22:04.000,279471,8.57991,-73.637,0,0,Excesos de velocidad,46372,22.0,2020-08-11 15:07:26.193,2020-08-14 06:14:53.977,59470.0,97454.0,4.0,1490,47189.0,"687541 Girón, Colombia",49411.0,635427.0,635427.0,823.0,2020-08-14 05:39:34.0,010000118943,Transolicar,ET,1971,24854.0,BUCARAMANGA,-73.13232523100001,7.122787285339999,68001,Finalizado,Nacional,GRANO,TRANSPORTE DE CARGA SOLIDA Y LIQUIDA,8,3,3,1.0,1
1944493,1944493,66763823,2020-09-25 07:18:51.000,305869,4.53036,-74.31735,0,0,Excesos de velocidad,43826,22.0,2020-09-23 15:01:06.427,2020-09-25 11:12:15.0,64083.0,110111.0,3.0,1485,50386.0,"Autopista Sur 13-33, 250051 Soacha, Colombia",42765.0,234112.0,234112.0,698.0,2020-09-25 11:17:22.0,613523007,OPPERAR COLOMBIA S.A.S.,ET,1641,1.0,MOSQUERA,-74.22826847270001,4.71430462524,25473,Finalizado,Regional,VIAJERA_SE,IMBOCAR S.A.S,9,4,4,1.0,1
1944472,1944472,59167686,2020-08-13 09:22:31.000,276925,7.102710000000001,-73.16537,0,0,Excesos de velocidad,46372,22.0,2020-08-06 14:04:20.950,2020-08-14 12:24:29.097,64920.0,105651.0,4.0,1490,47189.0,"62-81, 686048 Cimitarra, Colombia",97512.0,1254785.0,1254767.0,1624.0,2020-08-14 11:53:08.0,010000118715,Transolicar,ET,1971,24854.0,BUCARAMANGA,-73.13232523100001,7.122787285339999,68001,Finalizado,Nacional,GRANO,TRANSPORTE DE CARGA SOLIDA Y LIQUIDA,8,3,3,1.0,1
1944368,1944368,59163620,2020-08-13 09:09:30.000,280439,4.699330000000002,-74.08171999999998,0,0,Excesos de velocidad,47618,22.0,2020-08-13 01:49:19.167,2020-08-13 12:08:06.843,66783.0,99177.0,6.0,1412,67647.0,"Carrera 15A 122-78, 110111 Bogotá, D.C., Colombia",4966.0,27269.0,27269.0,82.0,2020-08-13 10:39:18.0,CEB0361286,COLOMBIANA DE COMERCIO S.A.,ET,1274,24854.0,"BOGOTÁ, D.C.",-74.1139187163,4.62457504964,11001,Finalizado,Inter cedi,RUTAS ALKOSTO,GARCIA BRICEÑO JHON,8,3,3,1.0,1
948062,948062,59163389,2020-08-13 09:08:58.000,279471,8.68961,-73.66306999999998,0,0,Excesos de velocidad,46372,22.0,2020-08-11 15:07:26.193,2020-08-14 06:14:53.977,59470.0,97454.0,4.0,1490,47189.0,"687541 Girón, Colombia",49411.0,635427.0,635427.0,823.0,2020-08-14 05:39:34.0,010000118943,Transolicar,ET,1971,24854.0,BUCARAMANGA,-73.13232523100001,7.122787285339999,68001,Finalizado,Nacional,GRANO,TRANSPORTE DE CARGA SOLIDA Y LIQUIDA,8,3,3,1.0,1
951608,951608,59170682,2020-08-13 09:31:44.000,279376,11.03539,-74.20373000000002,0,0,Excesos de velocidad,46372,22.0,2020-08-11 12:14:25.860,2020-08-14 12:37:33.787,66976.0,97679.0,4.0,1492,47189.0,"Calle 30 78-68, 470003 Santa Marta, Colombia",77189.0,951062.0,4946.0,17.0,2020-08-14 11:57:15.0,010000118924,Transolicar,ET,1971,24854.0,BUCARAMANGA,-73.13232523100001,7.122787285339999,68001,Finalizado,Nacional,ALIMENTOS,TRANSPORTE DE CARGA SOLIDA Y LIQUIDA,8,3,3,1.0,1
1844686,1844686,67447200,2020-09-29 12:02:04.000,307442,4.097272,-72.94506,0,0,Excesos de velocidad,43826,22.0,2020-09-29 14:41:12.303,2020-09-29 17:24:01.06,69111.0,111478.0,3.0,1485,50386.0,"Carrera 22 9-49, 500004 Villavicencio, Colombia",,,14521084.0,24674.0,2020-09-29 17:10:05.0,613525360,OPPERAR COLOMBIA S.A.S.,ET,1641,1.0,MOSQUERA,-74.22826847270001,4.71430462524,25473,Finalizado,Regional,VIAJERA_SE,IMBOCAR S.A.S,9,5,1,2.0,1
952558,952558,59158414,2020-08-13 08:51:34.000,279359,7.8159899999999976,-73.4174,0,0,Excesos de velocidad,46372,22.0,2020-08-11 11:31:19.827,2020-08-14 16:48:08.857,64965.0,88291.0,4.0,1489,47189.0,"Carrera 30 6, 080004 Barranquilla, Colombia",78899.0,908242.0,908242.0,1314.0,2020-08-14 14:02:11.0,010000118919,Transolicar,ET,1971,24854.0,BUCARAMANGA,-73.13232523100001,7.122787285339999,68001,Finalizado,Nacional,CARBON,TRANSPORTE DE CARGA SOLIDA Y LIQUIDA,8,3,3,1.0,1
1944439,1944439,59159760,2020-08-13 08:56:27.000,278828,6.903689999999999,-73.74122,0,0,Excesos de velocidad,27955,22.0,2020-08-10 16:14:37.203,2020-08-13 18:02:02.227,53391.0,77884.0,9.0,1261,37225.0,"45, 203067 Curumaní, Colombia",145992.0,1606764.0,1606764.0,2432.0,2020-08-13 17:44:01.0,20205240,DIACO S.A.,GC,1274,1.0,"BOGOTÁ, D.C.",-74.1139187163,4.62457504964,11001,Finalizado,Otros,CHATARRA TRASLADO,COLTANQUES S.A.S.,8,3,3,1.0,1
1941434,1941434,66763821,2020-09-25 07:18:51.000,307168,4.53036,-74.31735,0,0,Excesos de velocidad,43826,22.0,2020-10-05 14:05:43.353,2020-10-05 14:09:00.957,64083.0,110111.0,3.0,1485,50386.0,"Carrera 9 6, 252211 Fusagasugá, Colombia",,,,,2020-09-28 12:08:32.0,613526753,OPPERAR COLOMBIA S.A.S.,ET,1641,1.0,MOSQUERA,-74.22826847270001,4.71430462524,25473,Finalizado,Regional,VIAJERA_SE,IMBOCAR S.A.S,10,4,4,1.0,1
1872609,1872609,66588176,2020-09-24 08:53:00.000,305778,2.155789,-75.68581,0,0,Excesos de velocidad,43826,22.0,2020-09-23 13:51:03.570,2020-09-26 07:37:30.207,66316.0,107145.0,3.0,1485,50386.0,"Carrera 6BIS 40-24, 410001 Neiva, Colombia",75970.0,681119.0,680796.0,1249.0,2020-09-26 07:29:23.0,613520257,OPPERAR COLOMBIA S.A.S.,ET,1641,1.0,MOSQUERA,-74.22826847270001,4.71430462524,25473,Finalizado,Regional,VIAJERA_SE,IMBOCAR S.A.S,9,4,3,1.0,1
949316,949316,59173856,2020-08-13 09:43:46.000,279440,4.1203199999999995,-76.17708,0,0,Excesos de velocidad,46372,22.0,2020-08-11 14:16:32.913,2020-08-15 07:26:34.537,66265.0,107101.0,4.0,1489,47189.0,"253007 Bojacá, Colombia",68799.0,623585.0,479338.0,866.0,2020-08-15 07:24:15.0,010000118935,Transolicar,ET,1971,24854.0,BUCARAMANGA,-73.13232523100001,7.122787285339999,68001,Finalizado,Nacional,CARBON,TRANSPORTE DE CARGA SOLIDA Y LIQUIDA,8,3,3,1.0,1
942422,942422,59157666,2020-08-13 08:48:40.000,279620,4.5964,-74.13902,0,0,Excesos de velocidad,47618,22.0,2020-08-11 19:27:29.730,2020-08-15 22:28:55.02,65674.0,106573.0,3.0,1410,60910.0,"Carrera 31 10-33, 111611 Bogotá, D.C., Colombia",4172.0,24907.0,16337.0,39.0,2020-08-12 08:29:56.0,CEB0360954,COLOMBIANA DE COMERCIO S.A.,ET,1274,24854.0,"BOGOTÁ, D.C.",-74.1139187163,4.62457504964,11001,Finalizado,Regional,PROVINCIA,JHONATAN STEVEN RINCON BERNAL,8,3,3,1.0,1
960777,960777,59171240,2020-08-13 09:33:40.000,278860,10.97995,-74.76063,0,0,Excesos de velocidad,46372,22.0,2020-08-10 17:19:39.907,2020-08-14 16:47:16.06,66261.0,103162.0,4.0,1489,47189.0,"Carrera 30 6, 080004 Barranquilla, Colombia",78925.0,908382.0,908382.0,1314.0,2020-08-14 15:16:53.0,010000118894,Transolicar,ET,1971,24854.0,BUCARAMANGA,-73.13232523100001,7.122787285339999,68001,Finalizado,Nacional,CARBON,TRANSPORTE DE CARGA SOLIDA Y LIQUIDA,8,3,3,1.0,1
955186,955186,59165644,2020-08-13 09:16:16.000,279237,10.34418,-75.49659,0,0,Excesos de velocidad,11132,22.0,2020-08-11 08:02:24.770,2020-08-13 14:34:42.8,18935.0,46472.0,4.0,1187,23037.0,"130013 Cartagena, Colombia",88812.0,950299.0,588711.0,870.0,2020-08-13 11:25:07.0,3017802,C.I. MILPA S.A.,GC,1274,1.0,"BOGOTÁ, D.C.",-74.1139187163,4.62457504964,11001,Finalizado,Nacional,EXPORTACION,TRANSPORTES Y SERVICIOS TRANSER S.A.,8,3,3,1.0,1
971218,971218,59161883,2020-08-13 09:02:33.000,278603,8.68936,-73.66333,0,0,Excesos de velocidad,11132,22.0,2020-08-10 09:45:34.623,2020-08-14 07:19:31.983,39333.0,45473.0,4.0,1187,23037.0,"130013 Cartagena, Colombia",86979.0,955583.0,955583.0,1449.0,2020-08-14 07:20:17.0,2034464,C.I. MILPA S.A.,GC,1274,1.0,"BOGOTÁ, D.C.",-74.1139187163,4.62457504964,11001,Finalizado,Nacional,EXPORTACION,TRANSPORTES Y SERVICIOS TRANSER S.A.,8,3,3,1.0,1
1944317,1944317,59157640,2020-08-13 08:47:42.000,280502,4.67508,-74.15316,0,0,Excesos de velocidad,47618,22.0,2020-08-13 05:44:15.333,2020-08-13 22:48:36.0,66959.0,99189.0,6.0,1412,71590.0,"Calle 11 Sur 5-75, 250052 Soacha, Colombia",36194.0,201934.0,201934.0,593.0,2020-08-13 18:58:38.0,CEB0361383,COLOMBIANA DE COMERCIO S.A.,ET,1274,24854.0,"BOGOTÁ, D.C.",-74.1139187163,4.62457504964,11001,Finalizado,Inter cedi,RUTAS ALKOSTO,PULIDO MORA ISABEL,8,3,3,1.0,1
1660374,1660374,59172663,2020-08-13 09:39:31.000,279811,4.72375,-74.05258,0,0,Excesos de velocidad,47618,22.0,2020-08-12 06:04:03.143,2020-08-15 22:30:58.05,65583.0,99146.0,9.0,1413,59433.0,"Carrera 139 142C-2, 111151 Bogotá, D.C., Colombia",28467.0,142961.0,97321.0,343.0,2020-08-15 21:25:59.0,CEB0361127,COLOMBIANA DE COMERCIO S.A.,ET,1274,24854.0,"BOGOTÁ, D.C.",-74.1139187163,4.62457504964,11001,Finalizado,Otros,TIENDAS,Geminiano Parra Segura,8,3,3,1.0,1
1727713,1727713,70110035,2020-10-12 16:26:44.000,328956,4.740393,-74.13713,0,0,Excesos de velocidad,43826,44.0,2020-10-11 10:31:56.050,2020-10-13 08:17:45.0,64409.0,105199.0,2.0,1481,50386.0,"Carrera 16 10-68, 250251 Zipaquirá, Colombia",13119.0,94507.0,189768.0,435.0,2020-10-13 08:05:30.0,613535232,OPPERAR COLOMBIA S.A.S.,ET,1641,1.0,MOSQUERA,-74.22826847270001,4.71430462524,25473,Activa,Urbano,URBANO_SEC,IMBOCAR S.A.S,10,3,0,2.0,1
1873383,1873383,66820804,2020-09-25 14:06:46.000,305752,2.138331,-75.70835,0,0,Excesos de velocidad,43826,22.0,2020-09-26 13:41:55.997,2020-09-28 07:34:10.973,67596.0,107145.0,2.0,1481,50386.0,"45, 413028 Campoalegre, Colombia",6819.0,60866.0,60866.0,112.0,2020-09-28 12:36:14.0,613524724,OPPERAR COLOMBIA S.A.S.,ET,1641,1.0,MOSQUERA,-74.22826847270001,4.71430462524,25473,Finalizado,Urbano,URBANO_SEC,IMBOCAR S.A.S,9,4,4,2.0,1
1944436,1944436,59170654,2020-08-13 09:31:33.000,278828,7.12387,-73.58595,0,0,Excesos de velocidad,27955,22.0,2020-08-10 16:14:37.203,2020-08-13 18:02:02.227,53391.0,77884.0,9.0,1261,37225.0,"45, 203067 Curumaní, Colombia",145992.0,1606764.0,1606764.0,2432.0,2020-08-13 17:44:01.0,20205240,DIACO S.A.,GC,1274,1.0,"BOGOTÁ, D.C.",-74.1139187163,4.62457504964,11001,Finalizado,Otros,CHATARRA TRASLADO,COLTANQUES S.A.S.,8,3,3,1.0,1
1692837,1692837,59169121,2020-08-13 09:26:54.000,277121,4.6199900000000005,-74.13898,0,0,Excesos de velocidad,47618,22.0,2020-08-06 18:48:41.520,2020-08-14 12:19:57.773,67427.0,99206.0,3.0,1410,78545.0,"Avenida Carrera 72, 110831 Bogotá, D.C., Colombia",11843.0,74020.0,74020.0,196.0,2020-08-14 12:16:29.0,CEB0359688,COLOMBIANA DE COMERCIO S.A.,ET,1274,24854.0,"BOGOTÁ, D.C.",-74.1139187163,4.62457504964,11001,Finalizado,Regional,PROVINCIA,Jorge Octavio Ramirez,8,3,3,1.0,1
951301,951301,59173300,2020-08-13 09:42:25.000,279387,10.21312,-75.39333,0,0,Excesos de velocidad,11132,22.0,2020-08-11 12:34:51.163,2020-08-13 14:35:55.84,60144.0,45454.0,4.0,1187,22968.0,"Vía Cartagena Mamonal, 130009 Cartagena, Colombia",88884.0,947796.0,372277.0,572.0,2020-08-13 14:24:46.0,4057456,C.I. MILPA S.A.,GC,1274,1.0,"BOGOTÁ, D.C.",-74.1139187163,4.62457504964,11001,Finalizado,Nacional,EXPORTACION,COOTRANSVALLE O.C,8,3,3,1.0,1
920479,920479,59172691,2020-08-13 09:39:37.000,280696,5.321359999999999,-73.79225,0,0,Excesos de velocidad,46372,22.0,2020-08-13 09:15:35.140,2020-08-15 20:29:06.023,67793.0,110032.0,4.0,1489,47189.0,"764508 Buenaventura, Colombia",67763.0,608696.0,8185.0,20.0,2020-08-15 15:00:23.0,010000119067,Transolicar,ET,1971,24854.0,BUCARAMANGA,-73.13232523100001,7.122787285339999,68001,Finalizado,Nacional,CARBON,TRANSPORTE DE CARGA SOLIDA Y LIQUIDA,8,3,3,1.0,1
1891699,1891699,66416455,2020-09-23 11:31:00.000,304357,5.749549,-72.95255999999998,0,0,Excesos de velocidad,43826,22.0,2020-09-22 19:30:18.513,2020-09-25 11:12:02.0,69735.0,105200.0,2.0,1481,50386.0,"Calle 12 17, 150461 Duitama, Colombia",24921.0,159825.0,159825.0,407.0,2020-09-25 12:34:53.0,613523387,OPPERAR COLOMBIA S.A.S.,ET,1641,1.0,MOSQUERA,-74.22826847270001,4.71430462524,25473,Finalizado,Urbano,URBANO_SEC,IMBOCAR S.A.S,9,4,2,1.0,1
1944185,1944185,59163783,2020-08-13 09:10:01.000,280655,4.70005,-74.22313,0,0,Excesos de velocidad,47618,22.0,2020-08-13 08:28:57.747,2020-08-13 18:45:09.07,66919.0,99272.0,6.0,1412,48198.0,"Carrera 49, 111911 Bogotá, D.C., Colombia",29017.0,141825.0,58798.0,226.0,2020-08-13 18:33:03.0,CEB0361473,COLOMBIANA DE COMERCIO S.A.,ET,1274,24854.0,"BOGOTÁ, D.C.",-74.1139187163,4.62457504964,11001,Finalizado,Inter cedi,RUTAS ALKOSTO,LUZ ESMERALDA TERREROS,8,3,3,1.0,1
1829210,1829210,59163920,2020-08-13 09:10:29.000,279400,8.889,-73.65482,0,0,Excesos de velocidad,11132,22.0,2020-08-11 13:05:10.397,2020-08-18 07:36:43.423,43202.0,45991.0,4.0,1187,22970.0,"90, 085068 Luruaco, Colombia",185025.0,1956308.0,1956308.0,3083.0,2020-08-18 07:12:04.0,4057461,C.I. MILPA S.A.,GC,1274,1.0,"BOGOTÁ, D.C.",-74.1139187163,4.62457504964,11001,Finalizado,Nacional,EXPORTACION,TRANSPORTADORA SAN FERNANDO S.A.S,8,3,3,1.0,1
1873094,1873094,66557776,2020-09-24 06:15:45.000,305754,2.82997,-75.32939,0,0,Excesos de velocidad,43826,22.0,2020-09-23 13:42:09.143,2020-09-26 07:37:07.313,67596.0,107145.0,2.0,1481,50386.0,"Calle 42 6-96, 410001 Neiva, Colombia",18923.0,155587.0,38092.0,101.0,2020-09-26 07:15:04.0,613525884,OPPERAR COLOMBIA S.A.S.,ET,1641,1.0,MOSQUERA,-74.22826847270001,4.71430462524,25473,Finalizado,Urbano,URBANO_SEC,IMBOCAR S.A.S,9,4,3,1.0,1
952424,952424,59160744,2020-08-13 08:59:21.000,279362,10.980360000000001,-74.76074,0,0,Excesos de velocidad,46372,22.0,2020-08-11 11:46:53.823,2020-08-14 18:46:08.153,60597.0,98862.0,4.0,1489,47189.0,"45, 204001 Pailitas, Colombia",78467.0,907669.0,287700.0,402.0,2020-08-14 18:22:48.0,010000118921,Transolicar,ET,1971,24854.0,BUCARAMANGA,-73.13232523100001,7.122787285339999,68001,Finalizado,Nacional,CARBON,TRANSPORTE DE CARGA SOLIDA Y LIQUIDA,8,3,3,1.0,1
1843344,1843344,66830382,2020-09-25 15:57:35.000,307485,2.590191,-75.42876,0,0,Excesos de velocidad,43826,22.0,2020-09-24 16:47:13.397,2020-09-28 11:33:25.07,67596.0,107145.0,2.0,1481,50386.0,"Carrera 9 1 S, 414020 Garzón, Colombia",13107.0,126830.0,126830.0,217.0,2020-09-28 10:46:14.0,613527055,OPPERAR COLOMBIA S.A.S.,ET,1641,1.0,MOSQUERA,-74.22826847270001,4.71430462524,25473,Finalizado,Urbano,URBANO_SEC,IMBOCAR S.A.S,9,4,4,2.0,1
1944462,1944462,59165648,2020-08-13 09:16:17.000,277919,10.96803,-74.76651,0,0,Excesos de velocidad,46372,22.0,2020-08-08 14:08:09.490,2020-08-14 15:01:41.053,66362.0,107184.0,4.0,1489,47189.0,"45, 683577 Simacota, Colombia",139384.0,1649155.0,1955830.0,2740.0,2020-08-14 14:41:47.0,010000118830,Transolicar,ET,1971,24854.0,BUCARAMANGA,-73.13232523100001,7.122787285339999,68001,Finalizado,Nacional,CARBON,TRANSPORTE DE CARGA SOLIDA Y LIQUIDA,8,3,3,1.0,1
1944349,1944349,59163394,2020-08-13 09:08:59.000,280487,4.60571,-74.11961,0,0,Excesos de velocidad,47618,22.0,2020-08-13 05:20:30.443,2020-08-13 15:13:44.633,54393.0,99227.0,6.0,1412,71569.0,"Avenida Caracas 16-4, 111831 Bogotá, D.C., Colombia",138318.0,1115655.0,1115655.0,2296.0,2020-08-13 15:12:10.0,CEB0361368,COLOMBIANA DE COMERCIO S.A.,ET,1274,24854.0,"BOGOTÁ, D.C.",-74.1139187163,4.62457504964,11001,Finalizado,Inter cedi,RUTAS ALKOSTO,Deivi Camilo Martinez Sanabria,8,3,3,1.0,1
1944279,1944279,59157098,2020-08-13 08:45:46.000,280550,4.68886,-74.11841,0,0,Excesos de velocidad,47618,22.0,2020-08-13 06:29:29.990,2020-08-15 22:38:23.38,67348.0,109586.0,9.0,1413,92646.0,"110431 Bogotá, D.C., Colombia",27230.0,104860.0,104860.0,438.0,2020-08-15 17:48:19.0,CEB0361428,COLOMBIANA DE COMERCIO S.A.,ET,1274,24854.0,"BOGOTÁ, D.C.",-74.1139187163,4.62457504964,11001,Finalizado,Otros,TIENDAS,MISAEL LOPEZ CUELLAR,8,3,3,1.0,1
953468,953468,59158922,2020-08-13 08:53:20.000,279308,11.03696,-74.81723000000002,0,0,Excesos de velocidad,46372,22.0,2020-08-11 09:59:22.837,2020-08-14 15:09:11.457,59436.0,97421.0,4.0,1489,47189.0,"687507 El Playón, Colombia",90345.0,843834.0,843834.0,1505.0,2020-08-14 14:02:39.0,010000118909,Transolicar,ET,1971,24854.0,BUCARAMANGA,-73.13232523100001,7.122787285339999,68001,Finalizado,Nacional,CARBON,TRANSPORTE DE CARGA SOLIDA Y LIQUIDA,8,3,3,1.0,1
960996,960996,59166925,2020-08-13 09:20:10.000,278854,11.03633,-74.81692,0,0,Excesos de velocidad,46372,22.0,2020-08-10 17:00:32.390,2020-08-14 18:45:28.463,59529.0,97519.0,4.0,1489,47189.0,"45, 478028 Zona Bananera, Colombia",126509.0,1787206.0,916378.0,1058.0,2020-08-14 18:31:52.0,010000118892,Transolicar,ET,1971,24854.0,BUCARAMANGA,-73.13232523100001,7.122787285339999,68001,Finalizado,Nacional,CARBON,TRANSPORTE DE CARGA SOLIDA Y LIQUIDA,8,3,3,1.0,1
1727707,1727707,70116993,2020-10-12 17:15:02.000,328956,4.980818,-74.0036,0,0,Excesos de velocidad,43826,44.0,2020-10-11 10:31:56.050,2020-10-13 08:17:45.0,64409.0,105199.0,2.0,1481,50386.0,"Carrera 16 10-68, 250251 Zipaquirá, Colombia",13119.0,94507.0,189768.0,435.0,2020-10-13 08:05:30.0,613535232,OPPERAR COLOMBIA S.A.S.,ET,1641,1.0,MOSQUERA,-74.22826847270001,4.71430462524,25473,Activa,Urbano,URBANO_SEC,IMBOCAR S.A.S,10,3,0,2.0,1
1727706,1727706,70110064,2020-10-12 16:27:23.000,328956,4.7522459999999995,-74.14751,0,0,Excesos de velocidad,43826,44.0,2020-10-11 10:31:56.050,2020-10-13 08:17:45.0,64409.0,105199.0,2.0,1481,50386.0,"Carrera 16 10-68, 250251 Zipaquirá, Colombia",13119.0,94507.0,189768.0,435.0,2020-10-13 08:05:30.0,613535232,OPPERAR COLOMBIA S.A.S.,ET,1641,1.0,MOSQUERA,-74.22826847270001,4.71430462524,25473,Activa,Urbano,URBANO_SEC,IMBOCAR S.A.S,10,3,0,2.0,1
1702765,1702765,66757973,2020-09-25 06:43:08.000,305701,4.987502,-74.00375,0,0,Excesos de velocidad,43826,22.0,2020-09-29 09:47:01.077,2020-09-29 17:20:01.427,64409.0,105199.0,2.0,1481,50386.0,"250251 Zipaquirá, Colombia",,,,,2020-09-29 16:58:14.0,613526164,OPPERAR COLOMBIA S.A.S.,ET,1641,1.0,MOSQUERA,-74.22826847270001,4.71430462524,25473,Finalizado,Urbano,URBANO_SEC,IMBOCAR S.A.S,9,4,4,1.0,1
1518140,1518140,67985687,2020-10-02 15:10:01.000,312764,2.274638,-75.61574,0,0,Excesos de velocidad,43826,22.0,2020-10-06 22:25:20.630,2020-10-08 16:03:54.94,66316.0,107145.0,3.0,1485,50386.0,"412007 Palermo, Colombia",85752.0,810380.0,861189.0,1372.0,2020-10-08 15:59:47.0,613531418,OPPERAR COLOMBIA S.A.S.,ET,1641,1.0,MOSQUERA,-74.22826847270001,4.71430462524,25473,Finalizado,Regional,VIAJERA_SE,IMBOCAR S.A.S,10,1,4,2.0,1
1944186,1944186,59167457,2020-08-13 09:21:29.000,280655,4.6965,-74.21701,0,0,Excesos de velocidad,47618,22.0,2020-08-13 08:28:57.747,2020-08-13 18:45:09.07,66919.0,99272.0,6.0,1412,48198.0,"Carrera 49, 111911 Bogotá, D.C., Colombia",29017.0,141825.0,58798.0,226.0,2020-08-13 18:33:03.0,CEB0361473,COLOMBIANA DE COMERCIO S.A.,ET,1274,24854.0,"BOGOTÁ, D.C.",-74.1139187163,4.62457504964,11001,Finalizado,Inter cedi,RUTAS ALKOSTO,LUZ ESMERALDA TERREROS,8,3,3,1.0,1
1868621,1868621,66649751,2020-09-24 15:54:30.000,305895,6.351758,-75.50648000000002,0,0,Excesos de velocidad,43826,22.0,2020-09-23 15:12:29.593,2020-09-25 10:57:32.0,67001.0,109265.0,2.0,1481,50386.0,"Carrera 55 31-33, 051052 Bello, Colombia",51869.0,361710.0,361710.0,856.0,2020-09-25 10:50:13.0,613522277,OPPERAR COLOMBIA S.A.S.,ET,1641,1.0,MOSQUERA,-74.22826847270001,4.71430462524,25473,Finalizado,Urbano,URBANO_SEC,IMBOCAR S.A.S,9,4,3,2.0,1
937598,937598,59160021,2020-08-13 08:57:25.000,279981,6.72852,-73.87025,0,0,Excesos de velocidad,46372,22.0,2020-08-12 09:35:09.823,2020-08-16 10:18:26.65,59560.0,89071.0,4.0,1490,47189.0,"764508 Buenaventura, Colombia",85084.0,1153368.0,532069.0,634.0,2020-08-13 09:50:12.0,010000118978,Transolicar,ET,1971,24854.0,BUCARAMANGA,-73.13232523100001,7.122787285339999,68001,Finalizado,Nacional,GRANO,TRANSPORTE DE CARGA SOLIDA Y LIQUIDA,8,3,3,1.0,1
938510,938510,59167845,2020-08-13 09:23:31.000,279945,9.186169999999999,-73.58628,0,0,Excesos de velocidad,46372,22.0,2020-08-12 08:26:55.627,2020-08-15 07:29:03.64,62365.0,102895.0,4.0,1489,47189.0,"Vía Alterna al Puerto, 470003 Santa Marta, Colombia",66433.0,913737.0,124283.0,169.0,2020-08-15 07:05:57.0,010000118968,Transolicar,ET,1971,24854.0,BUCARAMANGA,-73.13232523100001,7.122787285339999,68001,Finalizado,Nacional,CARBON,TRANSPORTE DE CARGA SOLIDA Y LIQUIDA,8,3,3,1.0,1
923184,923184,59169304,2020-08-13 09:27:20.000,280642,4.71462,-74.21767,0,0,Excesos de velocidad,47618,22.0,2020-08-13 08:03:28.860,2020-08-13 22:42:32.633,66958.0,99442.0,6.0,1412,71503.0,"Carrera 122ABIS 70-7, 111031 Bogotá, D.C., Colombia",162639.0,1331133.0,1314045.0,2645.0,2020-08-13 19:51:06.0,CEB0361470,COLOMBIANA DE COMERCIO S.A.,ET,1274,24854.0,"BOGOTÁ, D.C.",-74.1139187163,4.62457504964,11001,Finalizado,Inter cedi,RUTAS ALKOSTO,RIGOBERTO NIETO PIRAJAN,8,3,3,1.0,1
1729746,1729746,70115445,2020-10-12 17:04:05.000,328902,4.887158,-74.03571,0,0,Excesos de velocidad,43826,44.0,2020-10-11 09:15:08.940,2020-10-13 08:17:46.0,64409.0,105199.0,2.0,1481,50386.0,"Calle 14A 20-2, 250251 Zipaquirá, Colombia",19292.0,133106.0,133190.0,313.0,2020-10-13 08:28:55.0,613533853,OPPERAR COLOMBIA S.A.S.,ET,1641,1.0,MOSQUERA,-74.22826847270001,4.71430462524,25473,Activa,Urbano,URBANO_SEC,IMBOCAR S.A.S,10,3,0,2.0,1
1944351,1944351,59158504,2020-08-13 08:52:06.000,280487,4.63891,-74.13618000000002,0,0,Excesos de velocidad,47618,22.0,2020-08-13 05:20:30.443,2020-08-13 15:13:44.633,54393.0,99227.0,6.0,1412,71569.0,"Avenida Caracas 16-4, 111831 Bogotá, D.C., Colombia",138318.0,1115655.0,1115655.0,2296.0,2020-08-13 15:12:10.0,CEB0361368,COLOMBIANA DE COMERCIO S.A.,ET,1274,24854.0,"BOGOTÁ, D.C.",-74.1139187163,4.62457504964,11001,Finalizado,Inter cedi,RUTAS ALKOSTO,Deivi Camilo Martinez Sanabria,8,3,3,1.0,1
1873384,1873384,66650247,2020-09-24 15:59:21.000,305752,1.943034,-75.80131999999998,0,0,Excesos de velocidad,43826,22.0,2020-09-26 13:41:55.997,2020-09-28 07:34:10.973,67596.0,107145.0,2.0,1481,50386.0,"45, 413028 Campoalegre, Colombia",6819.0,60866.0,60866.0,112.0,2020-09-28 12:36:14.0,613524724,OPPERAR COLOMBIA S.A.S.,ET,1641,1.0,MOSQUERA,-74.22826847270001,4.71430462524,25473,Finalizado,Urbano,URBANO_SEC,IMBOCAR S.A.S,9,4,3,2.0,1
931566,931566,59158903,2020-08-13 08:53:17.000,280110,11.06305,-74.20801,0,0,Excesos de velocidad,46372,22.0,2020-08-12 13:17:36.513,2020-08-15 07:30:35.523,66107.0,106969.0,4.0,1489,47189.0,"Vía Alterna al Puerto, 470003 Santa Marta, Colombia",57661.0,761180.0,124309.0,169.0,2020-08-15 07:16:25.0,010000119016,Transolicar,ET,1971,24854.0,BUCARAMANGA,-73.13232523100001,7.122787285339999,68001,Finalizado,Nacional,CARBON,TRANSPORTE DE CARGA SOLIDA Y LIQUIDA,8,3,3,1.0,1
929299,929299,59173087,2020-08-13 09:40:54.000,280141,4.66756,-74.14065,0,0,Excesos de velocidad,47618,22.0,2020-08-12 14:28:25.047,2020-08-14 12:58:13.167,65446.0,99393.0,3.0,1410,48005.0,"110921 Bogotá, D.C., Colombia",37921.0,197063.0,103735.0,347.0,2020-08-14 12:51:50.0,CEB0361209,COLOMBIANA DE COMERCIO S.A.,ET,1274,24854.0,"BOGOTÁ, D.C.",-74.1139187163,4.62457504964,11001,Finalizado,Regional,PROVINCIA,ELIZABETH RODRIGUEZ MONTAÑO,8,3,3,1.0,1
988175,988175,59165180,2020-08-13 09:14:21.000,277802,5.72656,-73.22189,0,0,Excesos de velocidad,27955,22.0,2020-08-08 10:11:44.667,2020-08-13 17:58:27.453,65968.0,76830.0,9.0,1331,37225.0,"55, 150408 Tuta, Colombia",40154.0,481022.0,482431.0,678.0,2020-08-13 17:37:21.0,8122914238,DIACO S.A.,GC,1274,1.0,"BOGOTÁ, D.C.",-74.1139187163,4.62457504964,11001,Finalizado,Otros,PRODUCTO TERMINADO,COLTANQUES S.A.S.,8,3,3,1.0,1
924415,924415,59163322,2020-08-13 09:08:40.000,280461,4.710369999999998,-74.09419,0,0,Excesos de velocidad,47618,22.0,2020-08-13 03:24:04.680,2020-08-13 23:24:21.8,65475.0,99404.0,9.0,1413,59010.0,"Calle 130B 103A-24, 111131 Bogotá, D.C., Colombia",60949.0,512793.0,484862.0,934.0,2020-08-13 23:13:08.0,CEB0361296,COLOMBIANA DE COMERCIO S.A.,ET,1274,24854.0,"BOGOTÁ, D.C.",-74.1139187163,4.62457504964,11001,Finalizado,Otros,TIENDAS,JOSE DAVID ROMERO ALBARRACIN,8,3,3,1.0,1
1167725,1167725,66828960,2020-09-25 15:32:58.000,305772,2.570627,-75.46021,0,0,Excesos de velocidad,43826,22.0,2020-09-23 13:48:58.620,2020-09-26 07:37:18.113,67596.0,107145.0,2.0,1481,50386.0,"Carrera 6BIS 40-24, 410001 Neiva, Colombia",3116.0,14914.0,10317.0,37.0,2020-09-26 07:29:23.0,613519807,OPPERAR COLOMBIA S.A.S.,ET,1641,1.0,MOSQUERA,-74.22826847270001,4.71430462524,25473,Finalizado,Urbano,URBANO_SEC,IMBOCAR S.A.S,9,4,4,2.0,1
931975,931975,59167571,2020-08-13 09:22:04.000,280094,11.00389,-74.21911999999998,0,0,Excesos de velocidad,46372,22.0,2020-08-12 12:50:31.390,2020-08-15 09:56:10.757,60257.0,98448.0,4.0,1490,47189.0,"45A, 683019 Oiba, Colombia",84698.0,925302.0,147060.0,301.0,2020-08-15 09:00:17.0,010000119009,Transolicar,ET,1971,24854.0,BUCARAMANGA,-73.13232523100001,7.122787285339999,68001,Finalizado,Nacional,GRANO,TRANSPORTE DE CARGA SOLIDA Y LIQUIDA,8,3,3,1.0,1
938027,938027,59160023,2020-08-13 08:57:25.000,279969,8.14227,-72.71836,0,0,Excesos de velocidad,46372,22.0,2020-08-12 09:17:58.290,2020-08-14 15:12:09.807,59536.0,97525.0,4.0,1489,47189.0,"080004 Barranquilla, Colombia",72891.0,980039.0,94044.0,136.0,2020-08-14 14:38:12.0,010000118974,Transolicar,ET,1971,24854.0,BUCARAMANGA,-73.13232523100001,7.122787285339999,68001,Finalizado,Nacional,CARBON,TRANSPORTE DE CARGA SOLIDA Y LIQUIDA,8,3,3,1.0,1
1726726,1726726,70290689,2020-10-13 09:41:44.000,328990,6.2815769999999995,-75.44729,0,0,Excesos de velocidad,43826,44.0,2020-10-11 11:00:43.727,2020-10-13 08:24:18.0,69941.0,112063.0,2.0,1481,50386.0,"Calle 45 51-49, 054050 Guarne, Colombia",,,,,2020-10-13 07:50:20.0,613532773,OPPERAR COLOMBIA S.A.S.,ET,1641,1.0,MOSQUERA,-74.22826847270001,4.71430462524,25473,Activa,Urbano,URBANO_SEC,IMBOCAR S.A.S,10,3,1,1.0,1
972529,972529,59158198,2020-08-13 08:50:37.000,278563,10.97895,-74.76100000000002,0,0,Excesos de velocidad,46372,22.0,2020-08-10 08:56:24.270,2020-08-14 16:46:11.69,59723.0,97729.0,4.0,1489,47189.0,"45, 205017 Aguachica, Colombia",80029.0,920116.0,412920.0,575.0,2020-08-14 16:40:46.0,010000118853,Transolicar,ET,1971,24854.0,BUCARAMANGA,-73.13232523100001,7.122787285339999,68001,Finalizado,Nacional,CARBON,TRANSPORTE DE CARGA SOLIDA Y LIQUIDA,8,3,3,1.0,1
1873102,1873102,66569735,2020-09-24 07:13:29.000,305754,2.559341,-75.47254000000002,0,0,Excesos de velocidad,43826,22.0,2020-09-23 13:42:09.143,2020-09-26 07:37:07.313,67596.0,107145.0,2.0,1481,50386.0,"Calle 42 6-96, 410001 Neiva, Colombia",18923.0,155587.0,38092.0,101.0,2020-09-26 07:15:04.0,613525884,OPPERAR COLOMBIA S.A.S.,ET,1641,1.0,MOSQUERA,-74.22826847270001,4.71430462524,25473,Finalizado,Urbano,URBANO_SEC,IMBOCAR S.A.S,9,4,3,1.0,1
946900,946900,59173079,2020-08-13 09:40:53.000,279526,10.96439,-74.75244,0,0,Excesos de velocidad,27955,22.0,2020-08-11 17:03:35.277,2020-08-13 18:04:21.047,67590.0,83877.0,9.0,1331,37287.0,"477008 Sitionuevo, Colombia",25464.0,303282.0,291310.0,397.0,2020-08-13 17:20:42.0,8123002077,DIACO S.A.,GC,1274,1.0,"BOGOTÁ, D.C.",-74.1139187163,4.62457504964,11001,Finalizado,Otros,PRODUCTO TERMINADO,ENTREGACARGAS SAS,8,3,3,1.0,1
950440,950440,59163967,2020-08-13 09:10:39.000,279405,6.17325,-74.56841999999997,0,0,Excesos de velocidad,46372,22.0,2020-08-11 13:23:23.743,2020-08-15 10:19:47.46,67202.0,109446.0,4.0,1490,47189.0,"65, 856018 Aguazul, Colombia",149473.0,1295807.0,436963.0,712.0,2020-08-15 09:30:29.0,010000118926,Transolicar,ET,1971,24854.0,BUCARAMANGA,-73.13232523100001,7.122787285339999,68001,Finalizado,Nacional,GRANO,TRANSPORTE DE CARGA SOLIDA Y LIQUIDA,8,3,3,1.0,1
1944302,1944302,59163760,2020-08-13 09:09:56.000,280516,4.6778900000000005,-74.12061,0,0,Excesos de velocidad,47618,22.0,2020-08-13 06:03:05.453,2020-08-13 22:47:27.577,66963.0,99312.0,6.0,1412,71679.0,"Carrera 114A 74D-39, 111031 Bogotá, D.C., Colombia",90599.0,710223.0,637766.0,1298.0,2020-08-13 15:38:49.0,CEB0361397,COLOMBIANA DE COMERCIO S.A.,ET,1274,24854.0,"BOGOTÁ, D.C.",-74.1139187163,4.62457504964,11001,Finalizado,Inter cedi,RUTAS ALKOSTO,Jenny Consuelo Moreno,8,3,3,1.0,1
1731905,1731905,70116968,2020-10-12 17:14:44.000,327880,4.983449,-74.00362,0,0,Excesos de velocidad,43826,22.0,2020-10-09 07:46:54.907,2020-10-13 07:01:02.817,64409.0,105199.0,2.0,1481,50386.0,"Calle 8, 250251 Zipaquirá, Colombia",7464.0,59937.0,59937.0,122.0,2020-10-13 06:40:43.0,613535602,OPPERAR COLOMBIA S.A.S.,ET,1641,1.0,MOSQUERA,-74.22826847270001,4.71430462524,25473,Finalizado,Urbano,URBANO_SEC,IMBOCAR S.A.S,10,3,0,2.0,1
1843343,1843343,66816946,2020-09-25 13:00:38.000,307485,2.003286,-75.78751,0,0,Excesos de velocidad,43826,22.0,2020-09-24 16:47:13.397,2020-09-28 11:33:25.07,67596.0,107145.0,2.0,1481,50386.0,"Carrera 9 1 S, 414020 Garzón, Colombia",13107.0,126830.0,126830.0,217.0,2020-09-28 10:46:14.0,613527055,OPPERAR COLOMBIA S.A.S.,ET,1641,1.0,MOSQUERA,-74.22826847270001,4.71430462524,25473,Finalizado,Urbano,URBANO_SEC,IMBOCAR S.A.S,9,4,4,2.0,1
951698,951698,59168427,2020-08-13 09:24:26.000,279370,5.46125,-73.43472,0,0,Excesos de velocidad,11132,22.0,2020-08-11 11:59:28.760,2020-08-18 07:26:45.81,37465.0,45575.0,4.0,1187,22968.0,"130009 Cartagena, Colombia",89111.0,952625.0,952625.0,1484.0,2020-08-15 12:24:29.0,3017810,C.I. MILPA S.A.,GC,1274,1.0,"BOGOTÁ, D.C.",-74.1139187163,4.62457504964,11001,Finalizado,Nacional,EXPORTACION,COOTRANSVALLE O.C,8,3,3,1.0,1
972973,972973,59170565,2020-08-13 09:31:21.000,278519,2.89975,-75.33442,0,0,Excesos de velocidad,27955,22.0,2020-08-10 08:02:34.440,2020-08-13 17:59:12.183,67574.0,107151.0,9.0,1331,37277.0,"412007 Palermo, Colombia",61769.0,717643.0,233973.0,363.0,2020-08-13 16:18:47.0,8122921259,DIACO S.A.,GC,1274,1.0,"BOGOTÁ, D.C.",-74.1139187163,4.62457504964,11001,Finalizado,Otros,PRODUCTO TERMINADO,MULTIMODAL LOGISTIC AGENCY LTDA,8,3,3,1.0,1
948068,948068,59161990,2020-08-13 09:03:10.000,279471,8.73651,-73.678,0,0,Excesos de velocidad,46372,22.0,2020-08-11 15:07:26.193,2020-08-14 06:14:53.977,59470.0,97454.0,4.0,1490,47189.0,"687541 Girón, Colombia",49411.0,635427.0,635427.0,823.0,2020-08-14 05:39:34.0,010000118943,Transolicar,ET,1971,24854.0,BUCARAMANGA,-73.13232523100001,7.122787285339999,68001,Finalizado,Nacional,GRANO,TRANSPORTE DE CARGA SOLIDA Y LIQUIDA,8,3,3,1.0,1
1944416,1944416,59159658,2020-08-13 08:55:58.000,279417,10.352960000000001,-75.49003,0,0,Excesos de velocidad,11132,22.0,2020-08-11 13:36:54.897,2020-08-18 07:32:17.713,37476.0,46840.0,4.0,1187,23044.0,"Diagonal 30 Sur Carrera 5-98, 250052 Soacha, Colombia",109511.0,1106588.0,1106468.0,1824.0,2020-08-18 07:18:14.0,4057446,C.I. MILPA S.A.,GC,1274,1.0,"BOGOTÁ, D.C.",-74.1139187163,4.62457504964,11001,Finalizado,Nacional,EXPORTACION,TRANSPORTES ANFER S.A.S.,8,3,3,1.0,1
1662266,1662266,59163302,2020-08-13 09:08:34.000,279744,4.6986099999999995,-74.12654,0,0,Excesos de velocidad,47618,22.0,2020-08-12 05:24:03.877,2020-08-15 22:29:49.807,67348.0,109586.0,9.0,1413,92646.0,"110431 Bogotá, D.C., Colombia",25128.0,121849.0,121849.0,397.0,2020-08-15 19:06:35.0,CEB0361057,COLOMBIANA DE COMERCIO S.A.,ET,1274,24854.0,"BOGOTÁ, D.C.",-74.1139187163,4.62457504964,11001,Finalizado,Otros,TIENDAS,MISAEL LOPEZ CUELLAR,8,3,3,1.0,1
924417,924417,59166660,2020-08-13 09:19:10.000,280461,4.67791,-74.12116,0,0,Excesos de velocidad,47618,22.0,2020-08-13 03:24:04.680,2020-08-13 23:24:21.8,65475.0,99404.0,9.0,1413,59010.0,"Calle 130B 103A-24, 111131 Bogotá, D.C., Colombia",60949.0,512793.0,484862.0,934.0,2020-08-13 23:13:08.0,CEB0361296,COLOMBIANA DE COMERCIO S.A.,ET,1274,24854.0,"BOGOTÁ, D.C.",-74.1139187163,4.62457504964,11001,Finalizado,Otros,TIENDAS,JOSE DAVID ROMERO ALBARRACIN,8,3,3,1.0,1
927615,927615,59166785,2020-08-13 09:19:36.000,280210,5.1900699999999995,-73.88123,0,0,Excesos de velocidad,46372,22.0,2020-08-12 16:34:23.260,2020-08-18 20:41:00.807,61757.0,102156.0,4.0,1489,47189.0,"Calle 19, 764502 Buenaventura, Colombia",65675.0,593485.0,30698.0,68.0,2020-08-18 19:09:15.0,010000119036,Transolicar,ET,1971,24854.0,BUCARAMANGA,-73.13232523100001,7.122787285339999,68001,Finalizado,Nacional,CARBON,TRANSPORTE DE CARGA SOLIDA Y LIQUIDA,8,3,3,1.0,1
959435,959435,59168893,2020-08-13 09:26:15.000,278914,4.65534,-74.13748000000002,0,0,Excesos de velocidad,47618,22.0,2020-08-10 18:35:12.510,2020-08-15 16:47:22.783,65446.0,99393.0,3.0,1410,48005.0,"Autopista Sur 27B S-69, 111631 Bogotá, D.C., Colombia",11371.0,61311.0,16605.0,44.0,2020-08-12 08:36:48.0,CEB0360634,COLOMBIANA DE COMERCIO S.A.,ET,1274,24854.0,"BOGOTÁ, D.C.",-74.1139187163,4.62457504964,11001,Finalizado,Regional,PROVINCIA,ELIZABETH RODRIGUEZ MONTAÑO,8,3,3,1.0,1
1944482,1944482,66611520,2020-09-24 11:08:19.000,306848,1.746563,-78.78302,0,0,Excesos de velocidad,43826,22.0,2020-09-24 09:10:09.447,2020-09-25 11:12:04.0,69400.0,111761.0,3.0,1485,50386.0,"Calle 14 13 O-32, 528502 San Andres de Tumaco, Colombia",36445.0,288999.0,288999.0,606.0,2020-09-25 11:12:11.0,613526353,OPPERAR COLOMBIA S.A.S.,ET,1641,1.0,MOSQUERA,-74.22826847270001,4.71430462524,25473,Finalizado,Regional,VIAJERA_SE,IMBOCAR S.A.S,9,4,3,1.0,1
1944216,1944216,59159194,2020-08-13 08:54:28.000,280633,4.69635,-74.17331,0,0,Excesos de velocidad,47618,22.0,2020-08-13 07:49:48.473,2020-08-13 22:49:05.663,66888.0,99352.0,6.0,1412,68872.0,"Calle 73ABISA Sur 17G-55, 111961 Bogotá, D.C., Colombia",74980.0,473196.0,408017.0,1085.0,2020-08-13 19:06:52.0,CEB0361467,COLOMBIANA DE COMERCIO S.A.,ET,1274,24854.0,"BOGOTÁ, D.C.",-74.1139187163,4.62457504964,11001,Finalizado,Inter cedi,RUTAS ALKOSTO,JORGE ELIECER CHAVARRO CASTELL,8,3,3,1.0,1
923298,923298,59164809,2020-08-13 09:12:50.000,280625,4.6308,-74.14376999999998,0,0,Excesos de velocidad,47618,22.0,2020-08-13 07:33:44.907,2020-08-13 16:18:09.137,67002.0,99235.0,9.0,1413,72545.0,"Avenida Carrera 50 38B S-33, 111621 Bogotá, D.C., Colombia",3804.0,22333.0,19318.0,50.0,2020-08-13 12:08:02.0,CEB0361464,COLOMBIANA DE COMERCIO S.A.,ET,1274,24854.0,"BOGOTÁ, D.C.",-74.1139187163,4.62457504964,11001,Finalizado,Otros,TIENDAS,JUAN CARLOS RUIZ VACA,8,3,3,1.0,1
1735577,1735577,69070863,2020-10-08 12:11:18.000,324779,3.4462050000000004,-73.59049,0,0,Excesos de velocidad,43826,22.0,2020-10-07 11:00:21.703,2020-10-08 16:22:37.37,69825.0,112024.0,3.0,1485,50386.0,"Transversal 21 0 O, 950001 San José del Guaviare, Colombia",,,,,2020-10-08 16:10:12.0,613533100,OPPERAR COLOMBIA S.A.S.,ET,1641,1.0,MOSQUERA,-74.22826847270001,4.71430462524,25473,Finalizado,Regional,VIAJERA_SE,IMBOCAR S.A.S,10,2,3,2.0,1
953544,953544,59159208,2020-08-13 08:54:29.000,279307,10.06772,-75.07574,0,0,Excesos de velocidad,11132,22.0,2020-08-11 09:58:08.233,2020-08-13 14:35:26.213,60144.0,45454.0,4.0,1187,22968.0,"130013 Cartagena, Colombia",89053.0,948413.0,308.0,1.0,2020-08-13 14:30:40.0,4057456,C.I. MILPA S.A.,GC,1274,1.0,"BOGOTÁ, D.C.",-74.1139187163,4.62457504964,11001,Finalizado,Nacional,EXPORTACION,COOTRANSVALLE O.C,8,3,3,1.0,1
971219,971219,59159744,2020-08-13 08:56:25.000,278603,8.55287,-73.63792,0,0,Excesos de velocidad,11132,22.0,2020-08-10 09:45:34.623,2020-08-14 07:19:31.983,39333.0,45473.0,4.0,1187,23037.0,"130013 Cartagena, Colombia",86979.0,955583.0,955583.0,1449.0,2020-08-14 07:20:17.0,2034464,C.I. MILPA S.A.,GC,1274,1.0,"BOGOTÁ, D.C.",-74.1139187163,4.62457504964,11001,Finalizado,Nacional,EXPORTACION,TRANSPORTES Y SERVICIOS TRANSER S.A.,8,3,3,1.0,1
1890111,1890111,66439708,2020-09-23 14:20:11.000,304447,5.118151,-73.69711,0,0,Excesos de velocidad,43826,22.0,2020-09-22 13:50:58.830,2020-09-25 11:07:19.0,64409.0,105199.0,2.0,1481,50386.0,"Variante Cota, 250017 Cota, Colombia",12287.0,92169.0,92169.0,199.0,2020-09-25 11:10:09.0,613523512,OPPERAR COLOMBIA S.A.S.,ET,1641,1.0,MOSQUERA,-74.22826847270001,4.71430462524,25473,Finalizado,Urbano,URBANO_SEC,IMBOCAR S.A.S,9,4,2,2.0,1
954189,954189,59157851,2020-08-13 08:49:39.000,279294,11.21675,-73.39139,0,0,Excesos de velocidad,46372,22.0,2020-08-11 09:23:38.923,2020-08-15 07:26:01.427,65268.0,106260.0,4.0,1489,47189.0,"Carrera 1 6A-215, 470001 Santa Marta, Colombia",69522.0,925659.0,925659.0,1158.0,2020-08-15 07:08:33.0,010000118905,Transolicar,ET,1971,24854.0,BUCARAMANGA,-73.13232523100001,7.122787285339999,68001,Finalizado,Nacional,CARBON,TRANSPORTE DE CARGA SOLIDA Y LIQUIDA,8,3,3,1.0,1
1403717,1403717,70239641,2020-10-13 06:03:10.000,329383,8.502369999999999,-75.63843,0,0,Excesos de velocidad,43826,44.0,2020-10-11 16:45:27.000,2020-10-13 08:25:59.0,67137.0,107188.0,2.0,1481,50386.0,"Calle 17 4, 052410 Caucasia, Colombia",11935.0,127040.0,127040.0,196.0,2020-10-13 08:22:29.0,613536308,OPPERAR COLOMBIA S.A.S.,ET,1641,1.0,MOSQUERA,-74.22826847270001,4.71430462524,25473,Activa,Urbano,URBANO_SEC,IMBOCAR S.A.S,10,3,1,1.0,1
931721,931721,59165962,2020-08-13 09:17:40.000,280106,10.95818,-74.17213000000002,0,0,Excesos de velocidad,46372,22.0,2020-08-12 13:08:30.480,2020-08-15 07:30:13.453,67748.0,106968.0,4.0,1489,47189.0,"Vía Alterna al Puerto, 470003 Santa Marta, Colombia",57661.0,761180.0,124316.0,169.0,2020-08-15 07:05:26.0,010000119015,Transolicar,ET,1971,24854.0,BUCARAMANGA,-73.13232523100001,7.122787285339999,68001,Finalizado,Nacional,CARBON,TRANSPORTE DE CARGA SOLIDA Y LIQUIDA,8,3,3,1.0,1
1731909,1731909,70115474,2020-10-12 17:04:25.000,327880,4.887158,-74.03571,0,0,Excesos de velocidad,43826,22.0,2020-10-09 07:46:54.907,2020-10-13 07:01:02.817,64409.0,105199.0,2.0,1481,50386.0,"Calle 8, 250251 Zipaquirá, Colombia",7464.0,59937.0,59937.0,122.0,2020-10-13 06:40:43.0,613535602,OPPERAR COLOMBIA S.A.S.,ET,1641,1.0,MOSQUERA,-74.22826847270001,4.71430462524,25473,Finalizado,Urbano,URBANO_SEC,IMBOCAR S.A.S,10,3,0,2.0,1
1167720,1167720,66830371,2020-09-25 15:57:35.000,305772,2.588473,-75.43049,0,0,Excesos de velocidad,43826,22.0,2020-09-23 13:48:58.620,2020-09-26 07:37:18.113,67596.0,107145.0,2.0,1481,50386.0,"Carrera 6BIS 40-24, 410001 Neiva, Colombia",3116.0,14914.0,10317.0,37.0,2020-09-26 07:29:23.0,613519807,OPPERAR COLOMBIA S.A.S.,ET,1641,1.0,MOSQUERA,-74.22826847270001,4.71430462524,25473,Finalizado,Urbano,URBANO_SEC,IMBOCAR S.A.S,9,4,4,2.0,1
1665618,1665618,59160457,2020-08-13 08:58:52.000,279160,5.6829199999999975,-72.95213000000003,0,0,Excesos de velocidad,47618,22.0,2020-08-11 06:43:54.810,2020-08-15 22:11:51.74,67120.0,99299.0,6.0,1412,81737.0,"111511 Bogotá, D.C., Colombia",38611.0,219407.0,245832.0,697.0,2020-08-15 19:29:54.0,CEB0360851,COLOMBIANA DE COMERCIO S.A.,ET,1274,24854.0,"BOGOTÁ, D.C.",-74.1139187163,4.62457504964,11001,Finalizado,Inter cedi,RUTAS ALKOSTO,Carolina Rojas Afanador,8,3,3,1.0,1
925494,925494,59172225,2020-08-13 09:38:01.000,280322,4.57016,-74.23897,0,0,Excesos de velocidad,47618,22.0,2020-08-12 18:41:30.980,2020-08-13 12:30:56.563,65473.0,99280.0,3.0,1410,59086.0,"Carrera 82A 73D S-14, 110731 Bogotá, D.C., Colombia",7598.0,38060.0,38060.0,125.0,2020-08-13 12:14:11.0,CEB0361235,COLOMBIANA DE COMERCIO S.A.,ET,1274,24854.0,"BOGOTÁ, D.C.",-74.1139187163,4.62457504964,11001,Finalizado,Regional,PROVINCIA,WILSON  GODOY BECERRA,8,3,3,1.0,1
980483,980483,59167843,2020-08-13 09:23:30.000,277971,4.61291,-74.11919,0,0,Excesos de velocidad,47618,22.0,2020-08-08 16:36:07.167,2020-08-14 14:49:26.953,65674.0,106573.0,3.0,1410,60910.0,"Calle 11A 36-87, 111611 Bogotá, D.C., Colombia",3467.0,21087.0,21089.0,56.0,2020-08-11 07:53:54.0,CEB0360146,COLOMBIANA DE COMERCIO S.A.,ET,1274,24854.0,"BOGOTÁ, D.C.",-74.1139187163,4.62457504964,11001,Finalizado,Regional,PROVINCIA,JHONATAN STEVEN RINCON BERNAL,8,3,3,1.0,1
1660372,1660372,59160001,2020-08-13 08:57:22.000,279811,4.7110400000000014,-74.05889,0,0,Excesos de velocidad,47618,22.0,2020-08-12 06:04:03.143,2020-08-15 22:30:58.05,65583.0,99146.0,9.0,1413,59433.0,"Carrera 139 142C-2, 111151 Bogotá, D.C., Colombia",28467.0,142961.0,97321.0,343.0,2020-08-15 21:25:59.0,CEB0361127,COLOMBIANA DE COMERCIO S.A.,ET,1274,24854.0,"BOGOTÁ, D.C.",-74.1139187163,4.62457504964,11001,Finalizado,Otros,TIENDAS,Geminiano Parra Segura,8,3,3,1.0,1
959432,959432,59171594,2020-08-13 09:35:44.000,278914,4.65647,-74.13853,0,0,Excesos de velocidad,47618,22.0,2020-08-10 18:35:12.510,2020-08-15 16:47:22.783,65446.0,99393.0,3.0,1410,48005.0,"Autopista Sur 27B S-69, 111631 Bogotá, D.C., Colombia",11371.0,61311.0,16605.0,44.0,2020-08-12 08:36:48.0,CEB0360634,COLOMBIANA DE COMERCIO S.A.,ET,1274,24854.0,"BOGOTÁ, D.C.",-74.1139187163,4.62457504964,11001,Finalizado,Regional,PROVINCIA,ELIZABETH RODRIGUEZ MONTAÑO,8,3,3,1.0,1
1944242,1944242,59167672,2020-08-13 09:22:30.000,280589,4.6806,-74.14359,0,0,Excesos de velocidad,47618,22.0,2020-08-13 06:58:22.320,2020-08-13 22:46:32.393,67544.0,99322.0,6.0,1412,105009.0,"Avenida Calle 22 105-51, 110921 Bogotá, D.C., Colombia",22847.0,117100.0,117100.0,371.0,2020-08-13 21:56:26.0,CEB0361447,COLOMBIANA DE COMERCIO S.A.,ET,1274,24854.0,"BOGOTÁ, D.C.",-74.1139187163,4.62457504964,11001,Finalizado,Inter cedi,RUTAS ALKOSTO,RITH ANDERSON ALARCON RODRIGUE,8,3,3,1.0,1
1944342,1944342,59168899,2020-08-13 09:26:15.000,280487,4.583,-74.10409,0,0,Excesos de velocidad,47618,22.0,2020-08-13 05:20:30.443,2020-08-13 15:13:44.633,54393.0,99227.0,6.0,1412,71569.0,"Avenida Caracas 16-4, 111831 Bogotá, D.C., Colombia",138318.0,1115655.0,1115655.0,2296.0,2020-08-13 15:12:10.0,CEB0361368,COLOMBIANA DE COMERCIO S.A.,ET,1274,24854.0,"BOGOTÁ, D.C.",-74.1139187163,4.62457504964,11001,Finalizado,Inter cedi,RUTAS ALKOSTO,Deivi Camilo Martinez Sanabria,8,3,3,1.0,1
832966,832966,60357206,2020-08-20 17:27:04.000,285047,6.354612,-75.50126,0,0,Excesos de velocidad,43826,22.0,2020-08-20 11:40:27.110,2020-08-21 17:48:25.863,67899.0,105289.0,2.0,1481,50386.0,"051038 Girardota, Colombia",7095.0,49093.0,19062.0,39.0,2020-08-21 17:34:08.0,613507278,OPPERAR COLOMBIA S.A.S.,ET,1641,1.0,MOSQUERA,-74.22826847270001,4.71430462524,25473,Finalizado,Urbano,URBANO_SEC,IMBOCAR S.A.S,8,4,3,2.0,1
1944178,1944178,59164158,2020-08-13 09:11:26.000,280692,11.251669999999999,-74.21345,0,0,Excesos de velocidad,46372,22.0,2020-08-13 09:06:06.890,2020-08-14 14:57:07.95,59551.0,97547.0,4.0,1490,47189.0,"Carrera 18A 21 N-114, 680001 Bucaramanga, Colombia",94132.0,1195639.0,1195639.0,1568.0,2020-08-14 13:29:11.0,010000119066,Transolicar,ET,1971,24854.0,BUCARAMANGA,-73.13232523100001,7.122787285339999,68001,Finalizado,Nacional,GRANO,TRANSPORTE DE CARGA SOLIDA Y LIQUIDA,8,3,3,1.0,1
1867839,1867839,66650850,2020-09-24 16:06:06.000,305941,2.638947,-72.76118000000002,0,0,Excesos de velocidad,43826,22.0,2020-09-23 15:30:16.377,2020-09-26 07:40:34.487,69825.0,112024.0,3.0,1485,50386.0,"507037 San Martín, Colombia",165194.0,1558537.0,1558537.0,2744.0,2020-09-26 07:39:11.0,613521938,OPPERAR COLOMBIA S.A.S.,ET,1641,1.0,MOSQUERA,-74.22826847270001,4.71430462524,25473,Finalizado,Regional,VIAJERA_SE,IMBOCAR S.A.S,9,4,3,2.0,1
1944237,1944237,59161718,2020-08-13 09:02:12.000,280618,4.69771,-74.20267,0,0,Excesos de velocidad,47618,22.0,2020-08-13 07:27:08.523,2020-08-13 22:39:47.673,67133.0,99319.0,6.0,1412,82893.0,"Avenida Calle 132 95A-45, 111131 Bogotá, D.C., Colombia",217057.0,1972627.0,901491.0,1476.0,2020-08-13 22:07:27.0,CEB0361461,COLOMBIANA DE COMERCIO S.A.,ET,1274,24854.0,"BOGOTÁ, D.C.",-74.1139187163,4.62457504964,11001,Finalizado,Inter cedi,RUTAS ALKOSTO,JESUS FERNANDO SUAREZ,8,3,3,1.0,1
1830324,1830324,59167683,2020-08-13 09:22:31.000,275749,4.6104199999999995,-74.13266,0,0,Excesos de velocidad,43826,22.0,2020-08-04 10:17:32.180,2020-08-13 18:12:06.03,67217.0,109452.0,2.0,1481,49981.0,"Calle 12 65-51, 111611 Bogotá, D.C., Colombia",7545.0,34692.0,2857.0,10.0,2020-08-13 18:08:08.0,613500536,OPPERAR COLOMBIA S.A.S.,ET,1641,1.0,MOSQUERA,-74.22826847270001,4.71430462524,25473,Finalizado,Urbano,URBANO_SEC,QUICK HELP SAS,8,3,3,1.0,1
996018,996018,59170629,2020-08-13 09:31:33.000,277393,10.969560000000001,-74.7634,0,0,Excesos de velocidad,27955,22.0,2020-08-07 13:32:10.740,2020-08-13 17:56:18.98,67457.0,109681.0,9.0,1331,37225.0,"080002 Barranquilla, Colombia",10025.0,105896.0,100722.0,153.0,2020-08-13 17:43:52.0,8122869060,DIACO S.A.,GC,1274,1.0,"BOGOTÁ, D.C.",-74.1139187163,4.62457504964,11001,Finalizado,Otros,PRODUCTO TERMINADO,COLTANQUES S.A.S.,8,3,3,1.0,1
1876795,1876795,66625583,2020-09-24 12:40:10.000,305612,3.786893,-73.7353,0,0,Excesos de velocidad,43826,22.0,2020-09-23 11:17:04.347,2020-09-26 07:35:07.11,69825.0,112024.0,3.0,1485,50386.0,"507037 San Martín, Colombia",70895.0,740980.0,310899.0,499.0,2020-09-26 07:29:45.0,613524213,OPPERAR COLOMBIA S.A.S.,ET,1641,1.0,MOSQUERA,-74.22826847270001,4.71430462524,25473,Finalizado,Regional,VIAJERA_SE,IMBOCAR S.A.S,9,4,3,2.0,1
938832,938832,59165468,2020-08-13 09:15:23.000,279932,10.54618,-75.36827,0,0,Excesos de velocidad,27955,22.0,2020-08-12 08:09:36.923,2020-08-14 17:40:59.78,65602.0,84096.0,9.0,1331,37287.0,"90, 085009 Sabanalarga, Colombia",16479.0,188907.0,43864.0,69.0,2020-08-14 16:11:18.0,8122996416,DIACO S.A.,GC,1274,1.0,"BOGOTÁ, D.C.",-74.1139187163,4.62457504964,11001,Finalizado,Otros,PRODUCTO TERMINADO,ENTREGACARGAS SAS,8,3,3,1.0,1
1666722,1666722,59162649,2020-08-13 09:06:04.000,279126,4.65187,-74.07084,0,0,Excesos de velocidad,47618,22.0,2020-08-11 06:21:52.273,2020-08-15 22:09:54.197,66970.0,99180.0,6.0,1412,71718.0,"Calle 17C 135-54, 110921 Bogotá, D.C., Colombia",175460.0,1442446.0,1442446.0,2912.0,2020-08-15 14:19:11.0,CEB0360821,COLOMBIANA DE COMERCIO S.A.,ET,1274,24854.0,"BOGOTÁ, D.C.",-74.1139187163,4.62457504964,11001,Finalizado,Inter cedi,RUTAS ALKOSTO,CARLOS ARNULFO OVIEDO BUENO,8,3,3,1.0,1
958313,958313,59162298,2020-08-13 09:04:43.000,278942,4.596509999999999,-74.13905,0,0,Excesos de velocidad,47618,22.0,2020-08-10 20:26:13.323,2020-08-14 15:53:42.363,65674.0,106573.0,9.0,1413,60910.0,"Avenida Centenario, 111611 Bogotá, D.C., Colombia",5052.0,26842.0,26842.0,84.0,2020-08-12 02:01:41.0,CEB0360654,COLOMBIANA DE COMERCIO S.A.,ET,1274,24854.0,"BOGOTÁ, D.C.",-74.1139187163,4.62457504964,11001,Finalizado,Otros,TIENDAS,JHONATAN STEVEN RINCON BERNAL,8,3,3,1.0,1
952550,952550,59160010,2020-08-13 08:57:22.000,279359,7.8868100000000005,-73.45271,0,0,Excesos de velocidad,46372,22.0,2020-08-11 11:31:19.827,2020-08-14 16:48:08.857,64965.0,88291.0,4.0,1489,47189.0,"Carrera 30 6, 080004 Barranquilla, Colombia",78899.0,908242.0,908242.0,1314.0,2020-08-14 14:02:11.0,010000118919,Transolicar,ET,1971,24854.0,BUCARAMANGA,-73.13232523100001,7.122787285339999,68001,Finalizado,Nacional,CARBON,TRANSPORTE DE CARGA SOLIDA Y LIQUIDA,8,3,3,1.0,1
1944389,1944389,59167460,2020-08-13 09:21:29.000,280064,8.84658,-73.67267,0,0,Excesos de velocidad,46372,22.0,2020-08-12 11:53:33.810,2020-08-14 14:58:09.41,59874.0,88731.0,4.0,1490,47189.0,"62-81, 686048 Cimitarra, Colombia",95919.0,1244510.0,1244510.0,1597.0,2020-08-14 13:42:59.0,010000118997,Transolicar,ET,1971,24854.0,BUCARAMANGA,-73.13232523100001,7.122787285339999,68001,Finalizado,Nacional,GRANO,TRANSPORTE DE CARGA SOLIDA Y LIQUIDA,8,3,3,1.0,1
947867,947867,59165881,2020-08-13 09:17:26.000,279473,11.24085,-73.38037,0,0,Excesos de velocidad,46372,22.0,2020-08-11 15:09:45.280,2020-08-15 07:28:36.78,61632.0,100202.0,4.0,1489,47189.0,"45, 205078 San Alberto, Colombia",59757.0,793442.0,556868.0,720.0,2020-08-15 07:27:12.0,010000118944,Transolicar,ET,1971,24854.0,BUCARAMANGA,-73.13232523100001,7.122787285339999,68001,Finalizado,Nacional,CARBON,TRANSPORTE DE CARGA SOLIDA Y LIQUIDA,8,3,3,1.0,1
1726727,1726727,70221205,2020-10-13 04:36:09.000,328990,6.188237,-75.43361999999998,0,0,Excesos de velocidad,43826,44.0,2020-10-11 11:00:43.727,2020-10-13 08:24:18.0,69941.0,112063.0,2.0,1481,50386.0,"Calle 45 51-49, 054050 Guarne, Colombia",,,,,2020-10-13 07:50:20.0,613532773,OPPERAR COLOMBIA S.A.S.,ET,1641,1.0,MOSQUERA,-74.22826847270001,4.71430462524,25473,Activa,Urbano,URBANO_SEC,IMBOCAR S.A.S,10,3,1,0.0,1
1944447,1944447,59170177,2020-08-13 09:30:14.000,278755,6.825660000000001,-72.99945,0,0,Excesos de velocidad,27955,22.0,2020-08-10 13:47:39.343,2020-08-13 18:01:10.207,52929.0,77513.0,9.0,1261,37219.0,"62 Combita-97, 150208 Cómbita, Colombia",153384.0,1750849.0,944169.0,1393.0,2020-08-13 16:22:32.0,20205220,DIACO S.A.,GC,1274,1.0,"BOGOTÁ, D.C.",-74.1139187163,4.62457504964,11001,Finalizado,Otros,CHATARRA TRASLADO,TRANSPORTADORA DE CARGA ANTIOQUIA S.A.S.,8,3,3,1.0,1
933576,933576,59160271,2020-08-13 08:58:21.000,280048,6.588660000000001,-73.09536,0,0,Excesos de velocidad,11132,22.0,2020-08-12 11:12:53.860,2020-08-18 07:27:31.997,61299.0,45420.0,4.0,1187,22968.0,"50, 253057 Facatativá, Colombia",89275.0,954049.0,5891.0,13.0,2020-08-15 14:29:13.0,3017821,C.I. MILPA S.A.,GC,1274,1.0,"BOGOTÁ, D.C.",-74.1139187163,4.62457504964,11001,Finalizado,Nacional,EXPORTACION,COOTRANSVALLE O.C,8,3,3,1.0,1
953540,953540,59166499,2020-08-13 09:18:45.000,279307,10.13459,-75.24384,0,0,Excesos de velocidad,11132,22.0,2020-08-11 09:58:08.233,2020-08-13 14:35:26.213,60144.0,45454.0,4.0,1187,22968.0,"130013 Cartagena, Colombia",89053.0,948413.0,308.0,1.0,2020-08-13 14:30:40.0,4057456,C.I. MILPA S.A.,GC,1274,1.0,"BOGOTÁ, D.C.",-74.1139187163,4.62457504964,11001,Finalizado,Nacional,EXPORTACION,COOTRANSVALLE O.C,8,3,3,1.0,1
1890110,1890110,66384269,2020-09-23 08:05:40.000,304447,4.953993,-73.926,0,0,Excesos de velocidad,43826,22.0,2020-09-22 13:50:58.830,2020-09-25 11:07:19.0,64409.0,105199.0,2.0,1481,50386.0,"Variante Cota, 250017 Cota, Colombia",12287.0,92169.0,92169.0,199.0,2020-09-25 11:10:09.0,613523512,OPPERAR COLOMBIA S.A.S.,ET,1641,1.0,MOSQUERA,-74.22826847270001,4.71430462524,25473,Finalizado,Urbano,URBANO_SEC,IMBOCAR S.A.S,9,4,2,1.0,1
1929250,1929250,70254522,2020-10-13 07:00:12.000,329477,4.113892,-72.80806,0,0,Excesos de velocidad,43826,44.0,2020-10-11 17:55:39.827,2020-10-13 08:21:14.0,69825.0,112024.0,3.0,1485,50386.0,"40, 502007 Puerto López, Colombia",46857.0,408649.0,384237.0,715.0,2020-10-13 08:21:34.0,613536690,OPPERAR COLOMBIA S.A.S.,ET,1641,1.0,MOSQUERA,-74.22826847270001,4.71430462524,25473,Activa,Regional,VIAJERA_SE,IMBOCAR S.A.S,10,3,1,1.0,1
1944391,1944391,59163762,2020-08-13 09:09:56.000,280064,8.93546,-73.63509,0,0,Excesos de velocidad,46372,22.0,2020-08-12 11:53:33.810,2020-08-14 14:58:09.41,59874.0,88731.0,4.0,1490,47189.0,"62-81, 686048 Cimitarra, Colombia",95919.0,1244510.0,1244510.0,1597.0,2020-08-14 13:42:59.0,010000118997,Transolicar,ET,1971,24854.0,BUCARAMANGA,-73.13232523100001,7.122787285339999,68001,Finalizado,Nacional,GRANO,TRANSPORTE DE CARGA SOLIDA Y LIQUIDA,8,3,3,1.0,1
924544,924544,59163630,2020-08-13 09:09:30.000,280390,4.69841,-74.19552,0,0,Excesos de velocidad,47618,22.0,2020-08-12 20:57:01.023,2020-08-15 08:09:53.977,65869.0,99398.0,3.0,1410,58859.0,"20, 180017 Florencia, Colombia",58855.0,597442.0,594384.0,966.0,2020-08-15 06:37:58.0,CEB0361268,COLOMBIANA DE COMERCIO S.A.,ET,1274,24854.0,"BOGOTÁ, D.C.",-74.1139187163,4.62457504964,11001,Finalizado,Regional,PROVINCIA,JUAN DE JESUS CRUZ APONTE,8,3,3,1.0,1
1069691,1069691,59165434,2020-08-13 09:15:18.000,275606,6.9893199999999975,-73.05396,0,0,Excesos de velocidad,43826,22.0,2020-08-06 16:01:19.943,2020-08-13 18:09:54.41,62850.0,103557.0,2.0,1481,49981.0,"687541 Girón, Colombia",6914.0,34067.0,15542.0,44.0,2020-08-13 14:25:02.0,613500603,OPPERAR COLOMBIA S.A.S.,ET,1641,1.0,MOSQUERA,-74.22826847270001,4.71430462524,25473,Finalizado,Urbano,URBANO_SEC,QUICK HELP SAS,8,3,3,1.0,1
1019613,1019613,59165975,2020-08-13 09:17:40.000,276892,7.1499,-73.14963,0,0,Excesos de velocidad,46372,22.0,2020-08-06 13:30:00.060,2020-08-13 09:20:43.94,65095.0,105816.0,4.0,1378,47189.0,"680001 Bucaramanga, Colombia",48253.0,550402.0,8177.0,17.0,2020-08-13 08:52:35.0,010000118721,Transolicar,ET,1971,24854.0,BUCARAMANGA,-73.13232523100001,7.122787285339999,68001,Finalizado,Nacional,Nacional,TRANSPORTE DE CARGA SOLIDA Y LIQUIDA,8,3,3,1.0,1
938833,938833,59163756,2020-08-13 09:09:56.000,279932,10.56462,-75.34411,0,0,Excesos de velocidad,27955,22.0,2020-08-12 08:09:36.923,2020-08-14 17:40:59.78,65602.0,84096.0,9.0,1331,37287.0,"90, 085009 Sabanalarga, Colombia",16479.0,188907.0,43864.0,69.0,2020-08-14 16:11:18.0,8122996416,DIACO S.A.,GC,1274,1.0,"BOGOTÁ, D.C.",-74.1139187163,4.62457504964,11001,Finalizado,Otros,PRODUCTO TERMINADO,ENTREGACARGAS SAS,8,3,3,1.0,1
950555,950555,59170923,2020-08-13 09:32:42.000,279401,10.97187,-74.75923,0,0,Excesos de velocidad,11132,22.0,2020-08-11 13:11:45.883,2020-08-13 14:36:12.847,37499.0,45606.0,4.0,1187,22968.0,"Carrera 30 6, 080004 Barranquilla, Colombia",78311.0,888513.0,156128.0,220.0,2020-08-13 14:24:49.0,2034496,C.I. MILPA S.A.,GC,1274,1.0,"BOGOTÁ, D.C.",-74.1139187163,4.62457504964,11001,Finalizado,Nacional,EXPORTACION,COOTRANSVALLE O.C,8,3,3,1.0,1
970914,970914,59168827,2020-08-13 09:25:56.000,278606,10.48577,-75.41020999999998,0,0,Excesos de velocidad,27955,22.0,2020-08-10 09:49:27.880,2020-08-13 18:00:21.057,65602.0,84096.0,9.0,1331,37287.0,"Transversal 56 Diagonal 22-40, 130013 Cartagena, Colombia",13731.0,150481.0,150481.0,228.0,2020-08-13 17:43:24.0,8122954701,DIACO S.A.,GC,1274,1.0,"BOGOTÁ, D.C.",-74.1139187163,4.62457504964,11001,Finalizado,Otros,PRODUCTO TERMINADO,ENTREGACARGAS SAS,8,3,3,1.0,1
1944196,1944196,59165886,2020-08-13 09:17:26.000,280646,4.6980699999999995,-74.19483000000002,0,0,Excesos de velocidad,47618,22.0,2020-08-13 08:09:31.623,2020-08-13 17:18:49.573,67709.0,99225.0,6.0,1412,114732.0,"Avenida Ciudad de Cali 42G S, 110881 Bogotá, D.C., Colombia",47688.0,289499.0,240363.0,627.0,2020-08-13 16:22:43.0,CEB0361472,COLOMBIANA DE COMERCIO S.A.,ET,1274,24854.0,"BOGOTÁ, D.C.",-74.1139187163,4.62457504964,11001,Finalizado,Inter cedi,RUTAS ALKOSTO,Lina Rosa Rojas Roncancio,8,3,3,1.0,1
1944355,1944355,59159866,2020-08-13 08:56:56.000,280485,4.5941800000000015,-74.13968,0,0,Excesos de velocidad,47618,22.0,2020-08-13 05:19:44.473,2020-08-13 15:10:43.41,67069.0,109313.0,6.0,1412,76220.0,"Avenida Chile 83A-2, 111051 Bogotá, D.C., Colombia",64285.0,470534.0,439014.0,976.0,2020-08-13 15:11:06.0,CEB0361366,COLOMBIANA DE COMERCIO S.A.,ET,1274,24854.0,"BOGOTÁ, D.C.",-74.1139187163,4.62457504964,11001,Finalizado,Inter cedi,RUTAS ALKOSTO,DEIVI CAMILO MARTINEZ SANABRIA,8,3,3,1.0,1
1944301,1944301,59165448,2020-08-13 09:15:18.000,280516,4.68372,-74.11458,0,0,Excesos de velocidad,47618,22.0,2020-08-13 06:03:05.453,2020-08-13 22:47:27.577,66963.0,99312.0,6.0,1412,71679.0,"Carrera 114A 74D-39, 111031 Bogotá, D.C., Colombia",90599.0,710223.0,637766.0,1298.0,2020-08-13 15:38:49.0,CEB0361397,COLOMBIANA DE COMERCIO S.A.,ET,1274,24854.0,"BOGOTÁ, D.C.",-74.1139187163,4.62457504964,11001,Finalizado,Inter cedi,RUTAS ALKOSTO,Jenny Consuelo Moreno,8,3,3,1.0,1
1234849,1234849,65680970,2020-09-18 16:14:54.000,301745,4.014094,-73.77525,0,0,Excesos de velocidad,43826,22.0,2020-09-17 05:40:46.647,2020-09-21 08:18:27.273,69111.0,111478.0,3.0,1485,50386.0,"Carrera 6 6-45, 507021 San Martín, Colombia",524100.0,4848270.0,4845309.0,8712.0,2020-09-21 07:55:21.0,613520001,OPPERAR COLOMBIA S.A.S.,ET,1641,1.0,MOSQUERA,-74.22826847270001,4.71430462524,25473,Finalizado,Regional,VIAJERA_SE,IMBOCAR S.A.S,9,3,4,2.0,1
931568,931568,59163908,2020-08-13 09:10:28.000,280110,11.14369,-74.21234,0,0,Excesos de velocidad,46372,22.0,2020-08-12 13:17:36.513,2020-08-15 07:30:35.523,66107.0,106969.0,4.0,1489,47189.0,"Vía Alterna al Puerto, 470003 Santa Marta, Colombia",57661.0,761180.0,124309.0,169.0,2020-08-15 07:16:25.0,010000119016,Transolicar,ET,1971,24854.0,BUCARAMANGA,-73.13232523100001,7.122787285339999,68001,Finalizado,Nacional,CARBON,TRANSPORTE DE CARGA SOLIDA Y LIQUIDA,8,3,3,1.0,1
924758,924758,59161170,2020-08-13 09:00:48.000,280376,4.62576,-74.17524,0,0,Excesos de velocidad,47618,22.0,2020-08-12 20:43:57.810,2020-08-15 22:33:41.143,65437.0,99226.0,3.0,1410,58893.0,"Carrera 33 55A S-20, 110611 Bogotá, D.C., Colombia",6759.0,33882.0,16636.0,55.0,2020-08-15 18:04:08.0,CEB0361259,COLOMBIANA DE COMERCIO S.A.,ET,1274,24854.0,"BOGOTÁ, D.C.",-74.1139187163,4.62457504964,11001,Finalizado,Regional,PROVINCIA,Jhon Fredy Castro Gomez,8,3,3,1.0,1
1168616,1168616,66564485,2020-09-24 06:42:51.000,305740,2.66053,-75.33714,0,0,Excesos de velocidad,43826,22.0,2020-09-26 13:41:42.047,2020-09-28 07:33:35.147,66316.0,107145.0,3.0,1485,50386.0,"45, 413027 Campoalegre, Colombia",92402.0,813918.0,378870.0,839.0,2020-09-28 10:12:54.0,613524140,OPPERAR COLOMBIA S.A.S.,ET,1641,1.0,MOSQUERA,-74.22826847270001,4.71430462524,25473,Finalizado,Regional,VIAJERA_SE,IMBOCAR S.A.S,9,4,3,1.0,1
921492,921492,59163317,2020-08-13 09:08:40.000,280658,5.7264,-73.222,0,0,Excesos de velocidad,27955,22.0,2020-08-13 08:30:52.510,2020-08-17 06:29:31.07,65968.0,76830.0,9.0,1331,37225.0,"Calle 9 8, 417030 Pitalito, Colombia",58380.0,667310.0,13.0,0.0,2020-08-17 06:22:27.0,8122973921,DIACO S.A.,GC,1274,1.0,"BOGOTÁ, D.C.",-74.1139187163,4.62457504964,11001,Finalizado,Otros,PRODUCTO TERMINADO,COLTANQUES S.A.S.,8,3,3,1.0,1
952855,952855,59163398,2020-08-13 09:08:59.000,279332,4.743530000000002,-74.28358,0,0,Excesos de velocidad,46372,22.0,2020-08-11 11:02:19.000,2020-08-13 09:48:02.397,67244.0,109477.0,4.0,1490,47189.0,"Vía Mosquera Cota, 250027 Funza, Colombia",78844.0,979136.0,1385.0,6.0,2020-08-13 09:46:21.0,010000118914,Transolicar,ET,1971,24854.0,BUCARAMANGA,-73.13232523100001,7.122787285339999,68001,Finalizado,Nacional,GRANO,TRANSPORTE DE CARGA SOLIDA Y LIQUIDA,8,3,3,1.0,1
1168613,1168613,66820426,2020-09-25 13:59:49.000,305740,2.085314,-75.76585,0,0,Excesos de velocidad,43826,22.0,2020-09-26 13:41:42.047,2020-09-28 07:33:35.147,66316.0,107145.0,3.0,1485,50386.0,"45, 413027 Campoalegre, Colombia",92402.0,813918.0,378870.0,839.0,2020-09-28 10:12:54.0,613524140,OPPERAR COLOMBIA S.A.S.,ET,1641,1.0,MOSQUERA,-74.22826847270001,4.71430462524,25473,Finalizado,Regional,VIAJERA_SE,IMBOCAR S.A.S,9,4,4,2.0,1
980490,980490,59170757,2020-08-13 09:32:13.000,277971,4.6197,-74.10265,0,0,Excesos de velocidad,47618,22.0,2020-08-08 16:36:07.167,2020-08-14 14:49:26.953,65674.0,106573.0,3.0,1410,60910.0,"Calle 11A 36-87, 111611 Bogotá, D.C., Colombia",3467.0,21087.0,21089.0,56.0,2020-08-11 07:53:54.0,CEB0360146,COLOMBIANA DE COMERCIO S.A.,ET,1274,24854.0,"BOGOTÁ, D.C.",-74.1139187163,4.62457504964,11001,Finalizado,Regional,PROVINCIA,JHONATAN STEVEN RINCON BERNAL,8,3,3,1.0,1
1944425,1944425,59167306,2020-08-13 09:21:12.000,279251,9.607669999999999,-73.61272,0,0,Excesos de velocidad,27955,22.0,2020-08-11 08:17:37.023,2020-08-13 18:02:49.327,53532.0,109890.0,9.0,1339,37243.0,"49, 203027 La Jagua de Ibirico, Colombia",122911.0,1326262.0,1326262.0,2048.0,2020-08-13 18:01:47.0,202015868,DIACO S.A.,GC,1274,1.0,"BOGOTÁ, D.C.",-74.1139187163,4.62457504964,11001,Finalizado,Otros,INSUMOS,TRANSPORTE DE CARGA SOLIDA,8,3,3,1.0,1
1847480,1847480,66828964,2020-09-25 15:32:58.000,307102,2.570627,-75.46021,0,0,Excesos de velocidad,43826,22.0,2020-09-24 13:27:32.367,2020-09-28 11:18:12.02,67596.0,107145.0,2.0,1481,50386.0,"45, 414028 Garzón, Colombia",19579.0,149464.0,157594.0,329.0,2020-09-28 11:50:52.0,613526135,OPPERAR COLOMBIA S.A.S.,ET,1641,1.0,MOSQUERA,-74.22826847270001,4.71430462524,25473,Finalizado,Urbano,URBANO_SEC,IMBOCAR S.A.S,9,4,4,2.0,1
1890112,1890112,66452116,2020-09-23 16:02:41.000,304447,4.964736,-73.95713,0,0,Excesos de velocidad,43826,22.0,2020-09-22 13:50:58.830,2020-09-25 11:07:19.0,64409.0,105199.0,2.0,1481,50386.0,"Variante Cota, 250017 Cota, Colombia",12287.0,92169.0,92169.0,199.0,2020-09-25 11:10:09.0,613523512,OPPERAR COLOMBIA S.A.S.,ET,1641,1.0,MOSQUERA,-74.22826847270001,4.71430462524,25473,Finalizado,Urbano,URBANO_SEC,IMBOCAR S.A.S,9,4,2,2.0,1
934973,934973,59159867,2020-08-13 08:56:56.000,280020,10.20186,-73.97700999999998,0,0,Excesos de velocidad,46372,22.0,2020-08-12 10:41:04.063,2020-08-16 10:18:39.853,66286.0,107123.0,4.0,1490,47189.0,"250027 Funza, Colombia",80308.0,992830.0,6831.0,25.0,2020-08-16 07:29:24.0,010000118994,Transolicar,ET,1971,24854.0,BUCARAMANGA,-73.13232523100001,7.122787285339999,68001,Finalizado,Nacional,GRANO,TRANSPORTE DE CARGA SOLIDA Y LIQUIDA,8,3,3,1.0,1
928493,928493,59172146,2020-08-13 09:37:43.000,280160,5.51422,-73.36896999999998,0,0,Excesos de velocidad,27955,22.0,2020-08-14 07:42:43.953,2020-08-18 05:20:33.547,65908.0,77874.0,9.0,1331,37276.0,"Carrera 22 4-98, 500003 Villavicencio, Colombia",26983.0,290601.0,44.0,0.0,2020-08-18 05:19:39.0,8122901977,DIACO S.A.,GC,1274,1.0,"BOGOTÁ, D.C.",-74.1139187163,4.62457504964,11001,Finalizado,Otros,PRODUCTO TERMINADO,TRANSPORTES UNIDOS ESPECIALES SAS,8,3,3,1.0,1
953465,953465,59165872,2020-08-13 09:17:25.000,279308,11.03513,-74.81661,0,0,Excesos de velocidad,46372,22.0,2020-08-11 09:59:22.837,2020-08-14 15:09:11.457,59436.0,97421.0,4.0,1489,47189.0,"687507 El Playón, Colombia",90345.0,843834.0,843834.0,1505.0,2020-08-14 14:02:39.0,010000118909,Transolicar,ET,1971,24854.0,BUCARAMANGA,-73.13232523100001,7.122787285339999,68001,Finalizado,Nacional,CARBON,TRANSPORTE DE CARGA SOLIDA Y LIQUIDA,8,3,3,1.0,1
1459232,1459232,69085317,2020-10-08 13:28:05.000,325373,4.9538410000000015,-74.01353,0,0,Excesos de velocidad,43826,22.0,2020-10-07 08:55:19.413,2020-10-08 16:25:13.237,64409.0,105199.0,2.0,1481,50386.0,"250251 Zipaquirá, Colombia",10859.0,75106.0,65019.0,139.0,2020-10-08 14:21:25.0,613530851,OPPERAR COLOMBIA S.A.S.,ET,1641,1.0,MOSQUERA,-74.22826847270001,4.71430462524,25473,Finalizado,Urbano,URBANO_SEC,IMBOCAR S.A.S,10,2,3,2.0,1
937600,937600,59157335,2020-08-13 08:46:18.000,279981,6.72863,-73.87018,0,0,Excesos de velocidad,46372,22.0,2020-08-12 09:35:09.823,2020-08-16 10:18:26.65,59560.0,89071.0,4.0,1490,47189.0,"764508 Buenaventura, Colombia",85084.0,1153368.0,532069.0,634.0,2020-08-13 09:50:12.0,010000118978,Transolicar,ET,1971,24854.0,BUCARAMANGA,-73.13232523100001,7.122787285339999,68001,Finalizado,Nacional,GRANO,TRANSPORTE DE CARGA SOLIDA Y LIQUIDA,8,3,3,1.0,1
1944471,1944471,59165892,2020-08-13 09:17:27.000,276925,7.12297,-73.15876999999998,0,0,Excesos de velocidad,46372,22.0,2020-08-06 14:04:20.950,2020-08-14 12:24:29.097,64920.0,105651.0,4.0,1490,47189.0,"62-81, 686048 Cimitarra, Colombia",97512.0,1254785.0,1254767.0,1624.0,2020-08-14 11:53:08.0,010000118715,Transolicar,ET,1971,24854.0,BUCARAMANGA,-73.13232523100001,7.122787285339999,68001,Finalizado,Nacional,GRANO,TRANSPORTE DE CARGA SOLIDA Y LIQUIDA,8,3,3,1.0,1
1944337,1944337,59170267,2020-08-13 09:30:25.000,280488,4.59946,-74.1904,0,0,Excesos de velocidad,47618,22.0,2020-08-13 05:20:46.527,2020-08-14 18:12:42.773,66948.0,99205.0,6.0,1412,71298.0,"40, 252257 Granada, Colombia",218160.0,1801377.0,1281890.0,2492.0,2020-08-14 16:47:50.0,CEB0361370,COLOMBIANA DE COMERCIO S.A.,ET,1274,24854.0,"BOGOTÁ, D.C.",-74.1139187163,4.62457504964,11001,Finalizado,Inter cedi,RUTAS ALKOSTO,Jesus Edgar Burgos Moreno,8,3,3,1.0,1
923572,923572,59162471,2020-08-13 09:05:07.000,280577,10.961689999999999,-74.76813,0,0,Excesos de velocidad,27955,22.0,2020-08-13 06:48:50.737,2020-08-18 05:44:33.547,67457.0,109681.0,9.0,1331,37287.0,"Calle 30 2-142, 080005 Barranquilla, Colombia",2677.0,14189.0,14189.0,44.0,2020-08-18 05:33:57.0,8123043026,DIACO S.A.,GC,1274,1.0,"BOGOTÁ, D.C.",-74.1139187163,4.62457504964,11001,Finalizado,Otros,PRODUCTO TERMINADO,ENTREGACARGAS SAS,8,3,3,1.0,1
923023,923023,59166541,2020-08-13 09:18:50.000,280650,11.03513,-74.81661,0,0,Excesos de velocidad,46372,22.0,2020-08-13 08:18:17.883,2020-08-15 08:04:47.97,59436.0,97421.0,4.0,1490,47189.0,"680001 Bucaramanga, Colombia",49941.0,576746.0,277592.0,427.0,2020-08-13 21:48:09.0,010000119056,Transolicar,ET,1971,24854.0,BUCARAMANGA,-73.13232523100001,7.122787285339999,68001,Finalizado,Nacional,GRANO,TRANSPORTE DE CARGA SOLIDA Y LIQUIDA,8,3,3,1.0,1
1668244,1668244,59160263,2020-08-13 08:58:20.000,279084,4.6285,-74.06591999999998,0,0,Excesos de velocidad,47618,22.0,2020-08-11 05:54:26.633,2020-08-15 10:28:49.9,66894.0,99376.0,6.0,1412,69145.0,"Carrera 102 Diagonal 86A-46, 111011 Bogotá, D.C., Colombia",110911.0,959206.0,17023.0,51.0,2020-08-15 10:22:25.0,CEB0360787,COLOMBIANA DE COMERCIO S.A.,ET,1274,24854.0,"BOGOTÁ, D.C.",-74.1139187163,4.62457504964,11001,Finalizado,Inter cedi,RUTAS ALKOSTO,OSCAR FERNANDO CUERVO MAHECHA,8,3,3,1.0,1
1944226,1944226,59163955,2020-08-13 09:10:39.000,280629,4.65454,-74.13154,0,0,Excesos de velocidad,47618,22.0,2020-08-13 07:42:13.003,2020-08-13 14:52:39.053,66961.0,99320.0,6.0,1412,71631.0,"Carrera 6 6A-15, 111711 Bogotá, D.C., Colombia",12351.0,65887.0,65887.0,202.0,2020-08-13 12:44:58.0,CEB0361465,COLOMBIANA DE COMERCIO S.A.,ET,1274,24854.0,"BOGOTÁ, D.C.",-74.1139187163,4.62457504964,11001,Finalizado,Inter cedi,RUTAS ALKOSTO,RODRIGO MONTAÑEZ CORREAL,8,3,3,1.0,1
923301,923301,59166458,2020-08-13 09:18:40.000,280625,4.60295,-74.14349,0,0,Excesos de velocidad,47618,22.0,2020-08-13 07:33:44.907,2020-08-13 16:18:09.137,67002.0,99235.0,9.0,1413,72545.0,"Avenida Carrera 50 38B S-33, 111621 Bogotá, D.C., Colombia",3804.0,22333.0,19318.0,50.0,2020-08-13 12:08:02.0,CEB0361464,COLOMBIANA DE COMERCIO S.A.,ET,1274,24854.0,"BOGOTÁ, D.C.",-74.1139187163,4.62457504964,11001,Finalizado,Otros,TIENDAS,JUAN CARLOS RUIZ VACA,8,3,3,1.0,1
1943441,1943441,59161884,2020-08-13 09:02:33.000,280435,4.5778,-74.0975,0,0,Excesos de velocidad,47618,22.0,2020-08-13 01:18:27.473,2020-08-15 22:32:55.48,65430.0,99445.0,3.0,1410,58887.0,"250020 Funza, Colombia",3807.0,21175.0,21175.0,62.0,2020-08-15 21:20:52.0,CEB0361283,COLOMBIANA DE COMERCIO S.A.,ET,1274,24854.0,"BOGOTÁ, D.C.",-74.1139187163,4.62457504964,11001,Finalizado,Regional,PROVINCIA,COLOMBIANA DE COMERCIO S.A,8,3,3,1.0,1
923297,923297,59169462,2020-08-13 09:27:52.000,280625,4.59208,-74.14553000000002,0,0,Excesos de velocidad,47618,22.0,2020-08-13 07:33:44.907,2020-08-13 16:18:09.137,67002.0,99235.0,9.0,1413,72545.0,"Avenida Carrera 50 38B S-33, 111621 Bogotá, D.C., Colombia",3804.0,22333.0,19318.0,50.0,2020-08-13 12:08:02.0,CEB0361464,COLOMBIANA DE COMERCIO S.A.,ET,1274,24854.0,"BOGOTÁ, D.C.",-74.1139187163,4.62457504964,11001,Finalizado,Otros,TIENDAS,JUAN CARLOS RUIZ VACA,8,3,3,1.0,1
